name,price,happyHour,rating,numRatings,categories,lat,long,checkins,url,fs_url
Dutch House Tavern,$$,True,8.19,180,Bar,40.9399589436,-74.1189119449,2910,,https://foursquare.com/v/dutch-house-tavern-fair-lawn-nj/4bb6899fef159c74292376f7
Biagio's Ristorante,$$,False,7.4,153,Italian Restaurant,40.9462317938,-74.0935499012,2123,http://www.biagios.com,https://foursquare.com/biagiosparamus
Grant Street Cafe,$$,True,7.82,213,Bar,40.9486851343,-73.9878495821,3654,http://www.grantstreetcafe.com,https://foursquare.com/v/grant-street-cafe/4b423035f964a52082ce25e3
Booze barn,$,True,,,Dive Bar,40.9493026882,-73.9791662771,103,,https://foursquare.com/v/booze-barn-dumont-nj/5187ea47498e3c5f21f12b7f
St John's Council #1345 ~ Knights of Columbus,,False,,,Other Nightlife,40.9380355538,-74.005883038,98,,https://foursquare.com/v/st-johns-council-1345--knights-of-columbus/4ca29d38d695199cf5cc3de7
The Hungry Peddler,$,True,6.47,137,Pub,40.947182509,-73.9759981792,1454,,https://foursquare.com/v/the-hungry-peddler/4b7df130f964a52059db2fe3
230th,$$$,False,,,Lounge,40.8740084187,-73.9435049519,10,,https://foursquare.com/v/230th/50f4aed3e4b0e117b9958371
Mr Vigg's,$$,False,,,Bar,40.9051625,-73.901347,63,,https://foursquare.com/v/mr-viggs/4d310037eefa8cfa7d7d26b3
The Kerrymen,$$,False,,,Brewery,40.9101836477,-73.8895039803,18,,https://foursquare.com/v/the-kerrymen/4f8b2fe2e4b07efb9f72e9a4
Terry's Space,$$$,False,,,Lounge,40.9041393284,-74.0610051155,69,,https://foursquare.com/v/terrys-space-maywood-nj-nj/51268efdfe70117ea75b1703
Charlie Brown's Fresh Grill,$$,False,6.65,88,Steakhouse,40.941407,-74.030131,1336,,https://foursquare.com/v/charlie-browns-fresh-grill/4bcb5e53cc8cd13a753fbfcf
The Soto Asylum,$,False,,,Hookah Bar,40.9418144342,-74.0084859194,256,,https://foursquare.com/v/the-soto-asylum/50a966a6e4b0d062c6509e5c
Rachel's Room,,False,,,Strip Club,40.94206,-73.982703,15,,https://foursquare.com/v/rachels-room/5224c9dc11d27aba624f50c5
Fort Lee (my apartment),$$$,False,,,Nightclub,40.866469,-73.964124,75,,https://foursquare.com/v/fort-lee-my-apartment/4e1a6e57fa76194645a48056
Schraalenburgh Inn,$$,False,,,Bar,40.940301,-73.996612,99,,https://foursquare.com/v/schraalenburgh-inn-dumont-nj/4ceedb0ff368b1f7f6b882f7
Tonworth's Disco,,False,,,Nightclub,40.900706,-73.946179,67,,https://foursquare.com/v/tonworths-disco/50de1ea3e4b0471641d1f5a0
Ned Devine's Saloon,$$,False,,,Bar,40.903595,-73.866786,167,,https://foursquare.com/v/ned-devines-saloon/4c539750479fc92816bdb691
D&R Trainview Cafe - Luxury Edition,$$$,True,,,Cocktail Bar,40.9232759123,-73.8421044848,61,,https://foursquare.com/v/dr-trainview-cafe--luxury-edition/4f5b865ce4b0090c099d75bb
Boulevard Bar & Grill,$$,True,6.79,137,Bar,40.9044440379,-74.1182294744,2046,,https://foursquare.com/v/boulevard-bar--grill/4bad6d3ff964a520014f3be3
Brookside Tavern,$$,False,,,Bar,40.9406501808,-73.9921193514,155,,https://foursquare.com/v/brookside-tavern/4afe318cf964a520a62e22e3
Kwasha Lipton,$$$,True,,,Speakeasy,40.8543102359,-73.9638016634,39,,https://foursquare.com/v/kwasha-lipton/4ce012e269136dcb602ce1e6
Buddhas Palace @ 5C,$,False,,,Dive Bar,40.8574627631,-73.9673085995,48,,https://foursquare.com/v/buddhas-palace--5c/50e8e9c8e4b098a1ea50ec9d
Mrs. Palu's Peep House,,False,,,Strip Club,40.9381390467,-73.9813127486,12,,https://foursquare.com/v/mrs-palus-peep-house/4f04d1e75c5c8b842bab206d
The Guerra's,,False,,,Nightclub,40.938036,-73.970843,1063,,https://foursquare.com/v/the-guerras/4d45db64bf61a1cd465d17ac
Insomnia Lounge and Restaurant,$$$,True,,,Lounge,40.8633388817,-73.9257574081,175,http://www.facebook.com/pages/insomnia-lounge-and-restaurant/387340718011210,https://foursquare.com/v/insomnia-lounge-and-restaurant/50e47220f2e7a0615dba95e5
Maja's Tapas & Bar,$$,False,,,Bar,40.8658821223,-73.9278160178,43,,https://foursquare.com/v/majas-tapas--bar/51fc4c06498ea67cd3f75a8a
chris and kros house of awesomenoss,$$,False,,,Wine Bar,40.8682632446,-73.9250030518,4,,https://foursquare.com/v/chris-and-kros-house-of-awesomenoss-new-york-ny/53768e58498e52706d293ebe
Durty Nelly's,,False,,,Bar,40.9075605878,-73.8724784613,232,,https://foursquare.com/v/durty-nellys/4ba17291f964a520e5b737e3
Mckeon's pub,,False,,,Arcade,40.9029906783,-73.8643929753,308,,https://foursquare.com/v/mckeons-pub/4ba165d3f964a52086b337e3
Bodhran,,False,,,Pub,40.9065557426,-73.8709330559,195,,https://foursquare.com/v/bodhran/4e02035ccc3fe1394f714fc7
Yonkers Tiki Hut,$$$,False,,,Cocktail Bar,40.908723,-73.862082,13,,https://foursquare.com/v/yonkers-tiki-hut/52685efe11d2fcddf45d4021
J. C. Fogarty's,$$,True,7.89,181,Bar,40.9392699989,-73.8346213102,2051,http://jcfogartys.com,https://foursquare.com/v/j-c-fogartys/4af8c5bef964a520cf0f22e3
The Malt House,$$,False,,,Bar,40.9215404143,-73.8543373364,532,,https://foursquare.com/v/the-malt-house/4c705937d7fab1f7d4525ec9
Pete's Park Place Tavern,$$,True,7.22,126,Bar,40.939748,-73.834043,1135,,https://foursquare.com/v/petes-park-place-tavern/4b7d65ddf964a5203cbc2fe3
241 Sport Bar,$$,False,,,Bar,40.9033097282,-73.850822623,3,,https://foursquare.com/v/241-sport-bar/4eaf9d239adff29daeed3e4d
Chakra,$$$,False,6.88,124,New American Restaurant,40.9237860046,-74.0842633948,1426,http://www.chakrarestaurant.com,https://foursquare.com/v/chakra/4c4ba8d09e6dbe9a6cb25a0c
GrandCru,$$,False,,,Wine Bar,40.8951490505,-73.9744944623,6,,https://foursquare.com/v/grandcru/50a2daa2e4b0b6bebcfbd54a
Oprandy's Wine and Liquor Store,$$,False,,,Wine Bar,40.90994,-73.968094,3,,https://foursquare.com/v/oprandys-wine-and-liquor-store/4f32ac5819836c91c7ee9a79
Тусовка: Парти Хард,$,False,,,Beer Garden,40.902903,-73.906109,4,,https://foursquare.com/v/%D1%82%D1%83%D1%81%D0%BE%D0%B2%D0%BA%D0%B0-%D0%BF%D0%B0%D1%80%D1%82%D0%B8-%D1%85%D0%B0%D1%80%D0%B4/5353e439498e3492942a557c
Fagan's Ale House,$$,False,,,Bar,40.9035173268,-73.866678537,98,http://www.fagansalehouse.com,https://foursquare.com/v/fagans-ale-house/4bc94ce4937ca59304b2a592
Katie's Cottage,$,False,,,Pub,40.9208351887,-73.865587443,333,,https://foursquare.com/v/katies-cottage/4c804223d92ea093d1703672
JJ's Pub & Grill,$,False,7.29,71,Pub,40.9232339222,-74.1102518403,1503,http://www.jjspubandgrill.com,https://foursquare.com/v/jjs-pub--grill/4cfb199c084f5481f0717f09
Club Aladdin,$$$,False,,,Nightclub,40.8905173114,-74.0395624714,162,http://www.clubaladdin.com,https://foursquare.com/v/club-aladdin/4b5a66b2f964a520b5c228e3
Firewaters of Hackensack,$$,False,,,Bar,40.9038354514,-74.0317364316,1312,http://www.firewatersbar.com,https://foursquare.com/v/firewaters-of-hackensack/4c43a3baf0bdd13ae58fc8cc
Jersey Boys Grill,$$,False,7.63,251,American Restaurant,40.931437468,-74.0254133991,2769,http://www.jerseyboysgrill.com,https://foursquare.com/v/jersey-boys-grill/4b3aa8d6f964a520216c25e3
Gavins Lounge,,True,,,Lounge,40.9015579224,-74.0020217896,1,,https://foursquare.com/v/gavins-lounge/537845ae498e5219d0ac8b47
Kelly Ryan's,$$,True,6.45,38,Bar,40.9051581993,-73.89782958,355,http://kellyryanspub.com,https://foursquare.com/v/kelly-ryans-bronx-ny/4aee1817f964a52002d221e3
The Hideout Tavern,$,False,,,Pub,40.896522485,-73.8711347317,36,http://www.hideouttavern.com,https://foursquare.com/v/the-hideout-tavern/4dbcc1cfcda109aa6ca4a54c
The Coachman's Inn,$$,False,,,Bar,40.9001607774,-73.8676260611,93,,https://foursquare.com/v/the-coachmans-inn/4c854ffb51ada1cdbfa43610
Burke's Bar,$$,True,6.61,95,Bar,40.9219780073,-73.8473250763,988,http://www.calicojacksnyc.com,https://foursquare.com/v/burkes-bar/4e4dd945bd4101d0d79cb2b7
The Soul Patio,$$$,True,,,Lounge,40.8890255532,-74.0568772995,53,,https://foursquare.com/v/the-soul-patio/4f63cfd5e4b0ea77cce65669
Sunday's @ PH A,,False,,,Hotel Bar,40.8872587494,-74.0432803012,13,,https://foursquare.com/v/sundays-ph-a-hackensack-nj/5133b4f9e4b02029f14b387c
Beemer's 2,$$,True,,,Bar,40.928209,-74.014855,396,,https://foursquare.com/v/beemers-2/4e87bc2561afa1258f93bf69
Tommy Fox's Public House,$$,True,8.02,331,Bar,40.9268240815,-73.9966644853,4547,http://www.tommyfoxs.com,https://foursquare.com/v/tommy-foxs-public-house/4b3617f3f964a520163025e3
Wagon Wheel,$$,False,6.34,56,Bar,40.927211,-73.9988733,418,http://www.wagwheel.com,https://foursquare.com/v/wagon-wheel-bergenfield-nj/4ca3de727f84224be9c1c858
Casa De Hombremuerto XD,,False,,,Strip Club,40.886229,-73.911752,324,,https://foursquare.com/v/casa-de-hombremuerto-xd/4f360639e4b0948a80906ebf
Danny Mac's,$$,False,,,Bar,40.9051694573,-73.8701010873,407,,https://foursquare.com/v/danny-macs/4b78439ff964a520a9c02ee3
Moriarty's Bar & Restaurant,$$,False,,,Pub,40.9029858667,-73.865032,206,http://www.moriartysmclean.com,https://foursquare.com/mcleanmoriartys
Maggie Spillane's Ale House,$$,True,7.5,264,Pub,40.9259504438,-73.8357178307,2774,http://maggiespillanes.com,https://foursquare.com/v/maggie-spillanes-ale-house/4d9648c29079b1f73231f609
TGI Fridays,$$,False,5.94,282,American Restaurant,40.92893422,-73.85013346,2915,http://tgifridays.com,https://foursquare.com/v/tgi-fridays/4ebbfde5722e58fca065dc63
Bayou Restaurant,$$,False,7.75,236,Cajun / Creole Restaurant,40.926088,-73.835709,2076,,https://foursquare.com/v/bayou-restaurant/4b9c00d0f964a5209b3f36e3
Emma C. Brisbane Youth Leadership Center,$$$,False,,,Lounge,40.8879227788,-73.8536883826,4,,https://foursquare.com/v/emma-c-brisbane-youth-leadership-center/519beb25498eb0c55bccdd53
My Sofa,$$$,False,,,Lounge,40.8837128668,-74.0804660627,99,,https://foursquare.com/v/my-sofa/4ef0238a490178f61bce0a17
Hilltop Tavern,$$,False,,,Bar,40.8940853167,-74.0767389536,535,,https://foursquare.com/v/hilltop-tavern/4bc3e56ab492d13ac376a960
Harley's Irish Pub,$$,True,,,Bar,40.88987955,-74.0384899,503,,https://foursquare.com/v/harleys-irish-pub/4c65d31d19f3c9b6c44e9eff
235th at Riverdale Ave.,$$$,False,,,Cocktail Bar,40.8851895318,-73.9073662617,67,,https://foursquare.com/v/235th-at-riverdale-ave/4ea44031dab4725270aeba49
The Punchbowl,$$,False,7.08,48,Bar,40.8849864193,-73.9006027871,463,,https://foursquare.com/v/the-punchbowl/4c12db67a5eb76b08301bfb7
Gleeson's Bar & Grill,$,True,7.12,83,Sports Bar,40.894064,-73.896677,751,,https://foursquare.com/v/gleesons-bar--grill/4b7dbc4df964a5205bd12fe3
Cue Lounge,$$,False,5.9,40,Bar,40.8863556974,-73.8568782806,579,,https://foursquare.com/v/cue-lounge/4e33512f227111ae768d89f2
Club Mystique,,False,,,Nightclub,40.8841492764,-73.8564760039,650,,https://foursquare.com/v/club-mystique/4bf0d45af45ec9282f44943c
Bronkers Tap House,$,False,7.07,21,Pub,40.907447183,-73.8725531126,331,,https://foursquare.com/v/bronkers-tap-house/514df8b1e4b01417e48ba81c
Jabba earthstrong party,,False,,,Bar,40.8848733889,-73.8537285833,3,,https://foursquare.com/v/jabba-earthstrong-party/4fd41cb3e4b0f961a803f76c
Irelands 32,$$,True,,,Bar,40.9067854584,-73.8720362949,238,,https://foursquare.com/v/irelands-32/51a672c0498ec3d7ab16234d
Behan's Pub,$$,False,6.35,26,Bar,40.8985583089,-73.8675341802,184,,https://foursquare.com/v/behans-pub/4b79d41ef964a520b9142fe3
Joe's American Bar & Grill,$$,False,7.19,390,American Restaurant,40.9192202006,-74.074716568,4789,,https://foursquare.com/v/joes-american-bar--grill/49cfec38f964a520e55a1fe3
Houlihan's,$$,False,7.75,830,American Restaurant,40.9199660469,-74.0666055679,7735,http://www.houlihans.com,https://foursquare.com/v/houlihans/4b5923ecf964a5209e7e28e3
Oak Ale House Restaurant & Sports Bar,$,True,6.46,224,Sports Bar,40.9039554973,-74.0622240377,2733,,https://foursquare.com/v/oak-ale-house-restaurant--sports-bar/4b80bfabf964a520e98930e3
The post,$$,False,,,Bar,40.8884431175,-73.9868796885,31,,https://foursquare.com/v/the-post/4e7423fad1643f93b15668b7
Stack's Tavern,$,False,,,Dive Bar,40.8828094292,-73.9022612572,66,,https://foursquare.com/v/stacks-tavern/4dfa7a3d1520879dfb8bb42e
Raine Lounge,$$$,False,6.46,48,Lounge,40.88037,-73.9031141996,838,http://raineloungenyc-hub.com,https://foursquare.com/v/raine-lounge/4d16c002bb64224b74edbb65
Riverdale City Grill,$$,True,,,Bar,40.8863234237,-73.9071193817,1675,,https://foursquare.com/v/riverdale-city-grill/4b09ae2af964a520871b23e3
Bottom Line Ale House,$$,True,6.1,89,Bar,40.8837665834,-73.8983345032,520,,https://foursquare.com/v/bottom-line-ale-house/4ba2d7b2f964a520811d38e3
Fenwick's Bar & Grill,$$,False,5.8,78,Bar,40.887145,-73.904555,1004,,https://foursquare.com/v/fenwicks-bar--grill/4b228503f964a520394824e3
Dan Rooney's Bar and Grill,$,False,5.27,34,Pub,40.9197907432,-73.8642092104,314,,https://foursquare.com/v/dan-rooneys-bar-and-grill/5137b53ce4b08fbb2ef5fdec
Donnie & Juniors,$,False,,,Dive Bar,40.8716307898,-74.0875482559,451,,https://foursquare.com/v/donnie--juniors/4b8c7598f964a520dbd132e3
Legal Sea Foods - Paramus,$$,False,7.81,185,Seafood Restaurant,40.9160864294,-74.0749879037,2432,http://www.legalseafoods.com/,https://foursquare.com/v/legal-sea-foods--paramus/4bfda0fe4cf820a1e6c0ecf4
Annie's Place,$$,False,,,Bar,40.9164242544,-74.0678574546,498,,https://foursquare.com/v/annies-place/4effaf7902d580f8efcdffb3
Bahama Breeze,$$,False,6.57,321,Caribbean Restaurant,40.9167477,-74.05872458,2921,http://www.bahamabreeze.com,https://foursquare.com/v/bahama-breeze/509f9fa2e4b0df8f7f8bf62b
Miller's Ale House,$$,False,8.08,1143,American Restaurant,40.9141738585,-74.0501248192,9754,http://www.millersalehouse.com,https://foursquare.com/v/millers-ale-house/501ec2b2e4b0abe6106743a7
スナックみゆき,,False,,,Lounge,40.8752571591,-74.0211367607,25,,https://foursquare.com/v/%E3%82%B9%E3%83%8A%E3%83%83%E3%82%AF%E3%81%BF%E3%82%86%E3%81%8D/50528374e4b0b914240ff910
Swainfest,$$,True,,,Wine Bar,40.8793735418,-73.9930777409,1,,https://foursquare.com/v/swainfest/518ebd1de4b056cde9a2bd11
Irish Eyes,$,False,,,Pub,40.8684829078,-73.9180755615,567,,https://foursquare.com/v/irish-eyes/4b84d39bf964a520ff4431e3
The Bridge Tavern,$,True,6.94,44,Sports Bar,40.8834907947,-73.901553154,382,,https://foursquare.com/v/the-bridge-tavern/4f17a65ca17c202e104c1aee
Escape Restaurant & Lounge,$$$,True,,,Lounge,40.8827100628,-73.881278336,20,,https://foursquare.com/v/escape-restaurant--lounge/52f0712a11d220b0752252c0
essence lounge,$$$,False,,,Lounge,40.8712937688,-73.8647088208,18,,https://foursquare.com/v/essence-lounge/50de8fb5e4b0c9707c455066
John Mulligans Fireside Pub,$,False,,,Pub,40.8978241682,-73.86709476,122,,https://foursquare.com/v/john-mulligans-fireside-pub/4c1dba9db9f876b01b2a7e46
Cue Lounge,,False,,,Other Nightlife,40.8739235793,-73.8549231159,156,,https://foursquare.com/v/cue-lounge/4f598cb2e4b0f78044c865d1
Sue's Rendezvous,,True,7.06,95,Strip Club,40.9139405838,-73.8373776914,935,,https://foursquare.com/v/sues-rendezvous/4c2af1fa8ef52d7f95a930ba
Tranquility Bar & Lounge,,False,,,Bar,40.8773939173,-73.845688272,2,,https://foursquare.com/v/tranquility-bar--lounge/53756c4f498ec2cf430b2ac8
Xpressions Night Club,$$,True,,,Bar,40.8796494883,-73.8440055082,231,,https://foursquare.com/v/xpressions-night-club/4c50ba87bd099521a94f555e
Lloyd's Backyard Oasis,,False,,,Bar,40.8696136475,-74.0820083618,7,,https://foursquare.com/v/lloyds-backyard-oasis/5232880611d2f0cf7f476a78
Johnny A's Players Club,,False,5.92,22,Strip Club,40.872698,-74.0490586167,203,,https://foursquare.com/v/johnny-as-players-club/4bcf5f96caff9521d20bcdf0
Feathers,$$,False,7.84,346,Gay Bar,40.910667298,-74.0359707952,3497,http://clubfeathers.com,https://foursquare.com/v/feathers/4bb41dcd9af3b71349078c28
Buddy's Place,$$,True,,,Bar,40.875965,-74.028547,454,,https://foursquare.com/v/buddys-place/4b89efe6f964a520625732e3
"Casa Hispaniola,  Fine Tobacconist",,False,,,Smoke Shop,40.896998,-73.971036,1238,http://www.casahispaniola.com,https://foursquare.com/v/casa-hispaniola--fine-tobacconist/4daf208d5da3cca6f0b83b68
The Liffy II Bar,$$,False,,,Bar,40.8691360319,-73.9171837908,436,,https://foursquare.com/v/the-liffy-ii-bar/4b2b1dfbf964a52083b424e3
Indian Road Café Pub Quiz,$,False,,,Pub,40.8729233817,-73.9185788732,243,http://pubquiz.indianroadcafe.com,https://foursquare.com/v/indian-road-caf%C3%A9-pub-quiz/5091c0d2e4b07ba8b08b7b29
Dubai Lounge,$$$,False,6.46,37,Lounge,40.8782315875,-73.9030659133,313,,https://foursquare.com/v/dubai-lounge/4c539fcf1b46c9b690f63ecd
Mr. McGoo's,$$,True,7.64,36,Bar,40.8793525328,-73.9043462672,380,,https://foursquare.com/v/mr-mcgoos/4c1c4501b9f876b005c37b46
The Heritage,$,True,6.8,73,Pub,40.90335705,-73.865926,885,,https://foursquare.com/v/the-heritage/4bb24ac935f0c9b6a913bb83
Mingles,$$$,False,,,Cocktail Bar,40.8841645042,-73.8324267854,396,http://ticketsus.at/yahooinc/343493.html,https://foursquare.com/v/mingles/4ba2a899f964a5206b0d38e3
Cjs,$$,False,,,Bar,40.8713357863,-73.8479166198,50,,https://foursquare.com/v/cjs/4e77fc51b0fb305db5a391a2
Sportsmen's Tavern,$,False,6.74,43,Dive Bar,40.8829275642,-74.1078315276,536,,https://foursquare.com/v/sportsmens-tavern-garfield-nj/4bd0dd5c9854d13aa4a4f84d
Napa Valley Wine Train,$$,True,,,Wine Bar,40.8664215134,-74.1057208978,10,,https://foursquare.com/v/napa-valley-wine-train/4fde20f3e4b070b1a5e12080
Maywood Inn's Twin Door Tavern,$$,False,6.97,65,American Restaurant,40.9056630681,-74.0647883532,691,,https://foursquare.com/v/maywood-inns-twin-door-tavern/4b7c8513f964a52075982fe3
TGI Fridays,$$,True,6.41,397,American Restaurant,40.90891341,-74.03354953,4457,http://tgifridays.com,https://foursquare.com/v/tgi-fridays/509d636d5d2463e871548040
Lenora's,$$,True,7.2,131,Bar,40.9055141418,-74.0407386446,1420,,https://foursquare.com/v/lenoras/4baec658f964a520f9d63be3
Rockefella's Grande Parlor,$$,False,,,Gay Bar,40.882108,-73.98894,3,,https://foursquare.com/v/rockefellas-grande-parlor/53668b7e498ef8d7529882fc
Grand Cru,$$$,False,6.35,68,New American Restaurant,40.8953876342,-73.9745920321,675,http://www.grandcruenglewood.com,https://foursquare.com/v/grand-cru/4a8df2c9f964a520851120e3
Negro Claro Lounge,$$$,False,,,Lounge,40.8623067931,-73.9202265502,651,,https://foursquare.com/v/negro-claro-lounge/4e61cca2d164ddd5e57fb5e1
Cafe Tabaco y Ron,$$$$,True,6.76,108,Lounge,40.8689989743,-73.9158174041,818,,https://foursquare.com/v/cafe-tabaco-y-ron/4ba56909f964a520710439e3
Blackstone Bar & Grill,$$,True,,,Bar,40.887171009,-73.9073720031,26,,https://foursquare.com/v/blackstone-bar--grill/53683f34498e6d121eeecbdf
Rory Dolan's,$$,True,7.96,377,Bar,40.9049215646,-73.8688032816,3860,,https://foursquare.com/v/rory-dolans/4ac7e99bf964a5208cba20e3
Giac's Crib,,False,,,Home (private),40.8728846544,-74.0828838593,990,,https://foursquare.com/v/giacs-crib/4c6f63cd34443704df24215f
Poitin Still,$$$,True,6.3,327,Pub,40.9036486325,-74.0422877396,3685,http://www.poitin-still.com,https://foursquare.com/v/poitin-still-hackensack-nj/4b6fa221f964a52088f82ce3
Hooters,$$,False,6.58,407,Wings Joint,40.9037749504,-74.0318683983,4804,http://www.hootersofphilly.com,https://foursquare.com/v/hooters/4ba01f4ff964a520cf5b37e3
The Cabana,,False,,,Home (private),40.8809680856,-74.0006327811,256,,https://foursquare.com/v/the-cabana/4e0c1deaaeb7af850d663110
The Assembly Steak House,$$$$,False,6.23,79,American Restaurant,40.8798729883,-73.9509487152,1027,http://www.assemblysteakhouse.com,https://foursquare.com/v/the-assembly-steak-house-englewood-cliffs-nj/4bfd50e1bf6576b0fa11adb8
Mexicali Live,,False,8.0,268,Rock Club,40.901582,-74.00494,2851,http://www.mexicalilive.com,https://foursquare.com/v/mexicali-live/457d668cf964a520233f1fe3
Club Cama with Special Guests...Beat Sheets,,False,,,Nightclub,40.865841,-73.961553,230,,https://foursquare.com/v/club-cama-with-special-guestsbeat-sheets-englewood-cliffs-nj/5174b057e4b049eeb012dc68
La Marina,,False,6.98,54,Other Nightlife,40.8689149188,-73.932167485,453,http://lamarinanyc.com,https://foursquare.com/v/la-marina/50034934e4b07b9576e76545
Abu Dhabi Hookah Lounge,$,True,,,Hookah Bar,40.8618066949,-73.9270065653,105,,https://foursquare.com/v/abu-dhabi-hookah-lounge/503040d3e4b07f473a3d5f1d
Tette Club,$$$,False,,,Nightclub,40.8651779047,-73.9188257386,515,,https://foursquare.com/v/tette-club/4f99f9cbe4b0c308b6dffff4
Beer Cave,$$,False,,,Brewery,40.8585633769,-73.8849563305,77,,https://foursquare.com/v/beer-cave/4f3ff714e4b0b019c6715253
Jolly Tinker,$$,True,6.17,75,Bar,40.8674836854,-73.8836126865,902,,https://foursquare.com/v/jolly-tinker/4b1712a8f964a520dbc123e3
Night Night,,False,,,Other Nightlife,40.8814263182,-73.8753266781,106,,https://foursquare.com/v/night-night/52833aa7498e582c7ef39f6d
Barcelona Restaurant & Bar,$$,False,5.55,59,Italian Restaurant,40.86855104,-74.10311975,482,http://www.barcelonasnj.com,https://foursquare.com/v/barcelona-restaurant--bar/4b563e31f964a5201a0728e3
Lazy Lannigan's,$$,True,7.24,275,Sports Bar,40.8980543333,-74.03994147,3447,http://www.lazylanigans.com,https://foursquare.com/v/lazy-lannigans-hackensack-nj/4b1c5844f964a5205e0624e3
Casa de Megan,$$$,True,,,Cocktail Bar,40.874991,-74.000878,8,,https://foursquare.com/v/casa-de-megan/4cf45dfbe942548140a97ac5
Bicycle Club,$$$,False,6.25,166,American Restaurant,40.8793880251,-73.9512370105,1437,http://www.thebicycleclub.com,https://foursquare.com/v/bicycle-club/4ab3d2b0f964a520a26e20e3
Opus Lounge,$$$,False,,,Lounge,40.8609533459,-73.9202857018,170,,https://foursquare.com/v/opus-lounge/5194e9bb50193eab827ac172
Corcho,$$,True,8.02,138,Wine Bar,40.8659190583,-73.927731514,1041,,https://foursquare.com/v/corcho/4c04307f187ec92803bab67b
Vacca Grill & Lounge,$$$,True,6.93,31,Lounge,40.8613622968,-73.9200370967,279,,https://foursquare.com/v/vacca-grill--lounge/52044ce6498e613a1930e231
El Quinto Centenario,$$,False,,,Caribbean Restaurant,40.8621223173,-73.9058849775,264,,https://foursquare.com/v/el-quinto-centenario/4bafc3fdf964a520021f3ce3
Rambling House,$$,True,8.34,348,Pub,40.8984107988,-73.8671723986,3452,http://ramblinghouse.com,https://foursquare.com/v/rambling-house/46212cb5f964a5208d451fe3
Papi Nice,$,False,,,Sports Bar,40.86571941,-73.8603845641,89,,https://foursquare.com/v/papi-nice/4de05ea9e4cd846e4088250d
Meadowlands Wine & Liquor,,False,,,Brewery,40.8531846001,-74.0879574027,29,,https://foursquare.com/v/meadowlands-wine--liquor/4ead948a9911d5c9515b10dd
Dp's Pub,$,False,7.43,161,Bar,40.8818571543,-74.1209019919,1083,,https://foursquare.com/v/dps-pub-garfield-nj/4d3b6300039eb60cc5d2f49c
Ed's Tavern,$$,True,7.32,192,Bar,40.8954216333,-74.0837619789,2854,,https://foursquare.com/v/eds-tavern/4b590345f964a5206a7828e3
Straphanger,$$,False,6.84,60,Bar,40.8941073277,-74.0443876037,857,,https://foursquare.com/v/straphanger/4c4911823013a59384d23ce2
Bolero Snort Warehouse,,False,,,Office,40.8604664913,-74.0291619301,15,,https://foursquare.com/v/bolero-snort-warehouse/501ac4ca90e732f5012093ce
Bogota Wine and Liquor,,False,,,Wine Bar,40.869126,-74.022045,4,,https://foursquare.com/v/bogota-wine-and-liquor/4f32759219836c91c7d9e1aa
GaGoPa Karaoke - 가고파 노래방,$$,False,7.11,31,Karaoke Bar,40.8518085954,-73.9699832411,267,,https://foursquare.com/v/gagopa-karaoke--%EA%B0%80%EA%B3%A0%ED%8C%8C-%EB%85%B8%EB%9E%98%EB%B0%A9/4c8860130f3c236a92a7f25c
Soho Nightclub,$$$,False,,,Nightclub,40.8523780525,-73.9698914086,349,,https://foursquare.com/v/soho-nightclub/4f69d656e4b0e8375cf81ccf
Arka Lounge,$$,True,7.18,106,Nightclub,40.857564,-73.932024,1259,http://www.arkalounge.com,https://foursquare.com/v/arka-lounge-new-york-ny/419fda80f964a520331e1fe3
Agua Roja Lounge & Restaurant,$$$,True,7.3,37,Lounge,40.8624350989,-73.9230051794,329,http://aguarojalounge.com,https://foursquare.com/v/agua-roja-lounge-restaurant-new-york-ny/4eea852993adad8125bdcb60
An Beal Bocht Cafe,$$,False,8.67,312,Bar,40.8872660433,-73.9049835703,4090,http://www.anbealbochtcafe.com,https://foursquare.com/v/an-beal-bocht-cafe-bronx-ny/3fd66200f964a5203ce31ee3
Monami Doscount Liquor,,False,,,Other Nightlife,40.8538572466,-73.8677121994,37,,https://foursquare.com/v/monami-doscount-liquor/4bc7bb8c8b7c9c74b51b37cf
gasolina lounge,$$,False,,,Bar,40.8638303619,-73.8649500116,94,,https://foursquare.com/v/gasolina-lounge/4f59b654e4b07f0bf5f9b004
ReBar,$,True,6.74,140,Lounge,40.8922029228,-74.0737201605,1706,,https://foursquare.com/v/rebar/4ba5a4f0f964a520f11839e3
The Harem,,False,6.44,62,Strip Club,40.8851483583,-74.0683737472,594,,https://foursquare.com/v/the-harem/4bdbbec23904a59308ff4b9e
Wide Awake Club,,False,,,Other Nightlife,40.8891284281,-74.0571469348,156,,https://foursquare.com/v/wide-awake-club/51ef6678498ea5a43666bdcb
Soo Karaoke,$$,False,,,Karaoke Bar,40.85311,-73.999974,42,,https://foursquare.com/v/soo-karaoke/4f1a3c5ae4b0f271e56d6ba6
マヨナカアリーナ,,False,,,Other Nightlife,40.8906365978,-74.0036058426,430,,https://foursquare.com/v/%E3%83%9E%E3%83%A8%E3%83%8A%E3%82%AB%E3%82%A2%E3%83%AA%E3%83%BC%E3%83%8A/511838f9f31c21dd30049ab5
Hanabi,$$,False,,,Japanese Restaurant,40.8475393283,-73.9703850081,111,http://www.hanabinj.com,https://foursquare.com/v/hanabi/50f74b7be4b06f5436f9211e
Dora Dora - 도라 도라,$$,False,,,Korean Restaurant,40.850175,-73.970294,346,,https://foursquare.com/v/dora-dora--%EB%8F%84%EB%9D%BC-%EB%8F%84%EB%9D%BC/4be9ec19a9900f4764f41540
Reynold's Bar,$,False,5.92,32,Dive Bar,40.849503149,-73.936415525,510,,https://foursquare.com/v/reynolds-bar-new-york-ny/4a3c88c5f964a5209ea11fe3
Uptown Social,$$$,True,6.82,93,Cocktail Bar,40.8643565111,-73.9269032307,658,,https://foursquare.com/v/uptown-social/5164e4cce4b04e0fe2d95218
809 Lounge,$$,False,7.75,153,Lounge,40.862018,-73.925207,1755,http://809lounge.com,https://foursquare.com/v/809-lounge/4b02fd24f964a520b04b22e3
in my bathtub,,False,,,Strip Club,40.8555709518,-73.867832793,150,,https://foursquare.com/v/in-my-bathtub/4d2b9b26342d6dcb1a8f17cb
Three Wise Monks,$,True,8.27,158,Bar,40.8815367915,-74.1125344762,1318,http://www.threewisemonks.com,https://foursquare.com/v/three-wise-monks-garfield-nj/4f5c01b2e4b008b156e06213
The Cottage Bar,$,False,7.11,212,Pub,40.8859181166,-74.0126576783,2406,,https://foursquare.com/v/the-cottage-bar/4b6fa3ddf964a520c3f82ce3
나가수노래방,$$,False,,,Karaoke Bar,40.8518070041,-73.9954134365,109,,https://foursquare.com/v/%EB%82%98%EA%B0%80%EC%88%98%EB%85%B8%EB%9E%98%EB%B0%A9/4efe647d9adffb90cbae5f58
Local Battles Gaming Center,$,False,,,Gaming Cafe,40.8394796579,-73.9816761017,390,http://www.localbattles.com,https://foursquare.com/v/local-battles-gaming-center/4c4d9348f53d0f47b12938a5
19금 포차,$$,False,,,Bar,40.847497,-73.970469,63,,https://foursquare.com/v/19%EA%B8%88-%ED%8F%AC%EC%B0%A8/519700fa498e75b318d88822
The Muriel,$$$,False,,,Cocktail Bar,40.8527689486,-73.9322134102,419,,https://foursquare.com/v/the-muriel/5047b7dfe4b0c03894a5fd01
Mia Sushi & Steakhouse,$$$$,True,6.88,75,Lounge,40.8518915159,-73.9316106404,723,,https://foursquare.com/v/mia-sushi--steakhouse/4f91e191e4b0c9a2aa2901c6
Bronx Alehouse,$$,True,9.41,1232,Bar,40.8846893529,-73.8997070972,11740,http://www.bronxalehouse.com,https://foursquare.com/v/bronx-alehouse/4acec156f964a520d3d120e3
Silhouette Restaurant & Lounge,$$,True,7.66,82,Latin American Restaurant,40.8806837309,-73.9027386465,859,http://www.silhouetteny.com,https://foursquare.com/v/silhouette-restaurant--lounge/4e8b34c561afcc24d9a236ca
Williamsbridge Tavern,$$,False,,,Bar,40.84628906,-73.84793,215,,https://foursquare.com/v/williamsbridge-tavern/4baebd69f964a520cad33be3
Vivienne's Bar,$,True,,,Dive Bar,40.8479082584,-73.8313311,478,,https://foursquare.com/v/viviennes-bar/4bc12e6374a9a5936a88d1f6
Yankees Fan Central,$,True,,,Sports Bar,40.8479156494,-74.0888290405,4,,https://foursquare.com/v/yankees-fan-central/533b452d498efe54966193c5
21 North,,False,7.46,23,Moving Target,40.8680071456,-74.1169448172,471,,https://foursquare.com/v/21-north-clifton-nj/4fe0bd4ee4b0518a41b8cbcd
Satin Dolls,,False,8.28,126,Strip Club,40.8826310134,-74.0668650217,1383,,https://foursquare.com/v/satin-dolls/4b959ca8f964a52023ac34e3
Super-hi Food and Liquor,,False,,,Wine Bar,40.866206,-74.022831,8,,https://foursquare.com/v/superhi-food-and-liquor/4f323a4919836c91c7c2c0a3
Westside Tavern,$$,False,,,Bar,40.8582478797,-74.0283110036,164,,https://foursquare.com/v/westside-tavern/4d03d30cdc45a0938883e6c6
Blades Brewery,$$,True,,,Brewery,40.850284487,-74.0197557712,148,,https://foursquare.com/v/blades-brewery/4fea6940e4b073076fa7be51
Bolero Snort Brewery,$$,False,,,Brewery,40.8574480541,-74.0211271589,188,,https://foursquare.com/v/bolero-snort-brewery/4c8ae62c6418a143a283e4ce
K Pop 노래방,$$,False,,,Karaoke Bar,40.8511361,-74.0027990973,27,,https://foursquare.com/v/k-pop-%EB%85%B8%EB%9E%98%EB%B0%A9/50d7c184e4b0dbf30fe54a8b
M Lounge,$$$,False,,,Lounge,40.844429,-74.005327,46,,https://foursquare.com/v/m-lounge/520f07e111d21d65b76b29b9
Monkey Room,$$,True,7.58,158,Bar,40.854935,-73.93711,2085,,https://foursquare.com/v/monkey-room/419d3780f964a5202c1e1fe3
La Nueva España Restaurant,$$$,False,,,Latin American Restaurant,40.8443299667,-73.93756515,256,http://facebook.com/profile.php?id=120834214600472&refid=60,https://foursquare.com/v/la-nueva-espa%C3%B1a-restaurant/4d377465d60c6dcb5d046ebc
P & K's Grille,$$,False,8.58,239,Sports Bar,40.878299262,-73.9033770561,1868,,https://foursquare.com/v/p--ks-grille/4bfeb342ca1920a1d5b1eb81
Acr Wines and Liquors,,False,,,Wine Bar,40.84589,-73.8665,18,,https://foursquare.com/v/acr-wines-and-liquors/4f328f6319836c91c7e3b78c
Gallifrey,,False,,,Speakeasy,40.839695299,-73.8609530973,32,,https://foursquare.com/v/gallifrey/50564a67e4b07ab78dff3f36
My Sofa,,False,,,Other Nightlife,40.8779258776,-74.0773225941,294,,https://foursquare.com/v/my-sofa/4eacbc638b8181aef7d381e2
Gabriel's Bar and Grille,$$,False,,,American Restaurant,40.8604786627,-74.0673029423,201,,https://foursquare.com/v/gabriels-bar-and-grille/4c1ea302fcf8c9b61c9aad0b
THE MAN CAVE,$$$,True,,,Speakeasy,40.8737042713,-74.0475947286,113,,https://foursquare.com/v/the-man-cave/4c7db34c8da18cfa775da0ce
General Poor's Tavern,$$,True,7.87,147,Bar,40.8795538816,-74.0441523742,1894,http://www.generalpoors.net,https://foursquare.com/v/general-poors-tavern/4ba43bb7f964a5207e8e38e3
Cozy Tavern,$$,False,,,Bar,40.8692832428,-74.0220739271,294,,https://foursquare.com/v/cozy-tavern/4c978c486b35a143c00137dc
Janbeer,$$,False,7.11,58,Bar,40.8475,-73.970537,619,,https://foursquare.com/v/janbeer/4e866f90f5b9b2d54054c9cc
Yahoo Karaoke,$$,False,,,Karaoke Bar,40.846593,-73.99911066,64,,https://foursquare.com/v/yahoo-karaoke/4ccc8f8fc0378cfa10948748
The Height Bar,$$,False,,,Bar,40.8424693915,-73.9352387124,264,,https://foursquare.com/v/the-height-bar/50ca5db5e4b0a8af760488bf
Da Heights Lounge,$$$,False,,,Lounge,40.8451512124,-73.9380171267,798,,https://foursquare.com/v/da-heights-lounge/500c6444e4b0e68938acc1d9
South Beach Restaurant & Lounge,$$,True,6.25,79,Lounge,40.8483923284,-73.9343891067,625,,https://foursquare.com/v/south-beach-restaurant--lounge/4f9fdc59e4b0410091f42f1c
Budda Restaurant & Lounge,$$$,False,6.24,20,Nightclub,40.8403062278,-73.9215871649,127,,https://foursquare.com/v/budda-restaurant--lounge/4e8e8a9d6c254835944b0c0b
Dyckman Bar,$$,True,6.83,251,Cocktail Bar,40.8656594224,-73.9275169373,2600,http://www.dyckmanbar.com,https://foursquare.com/v/dyckman-bar/4dd5bed77d8b322663c7a305
Casa de Bubbles,,False,,,Strip Club,40.8762321723,-73.8315595025,883,,https://foursquare.com/v/casa-de-bubbles/4ed841179911a3e78aa50620
7th St. Cafe,$$$,False,,,Speakeasy,40.837309,-74.0890282,231,,https://foursquare.com/v/7th-st-cafe/4c017e450bce20a163daf6c6
Shakers,,False,,,Other Nightlife,40.8338195585,-74.0888866294,304,http://www.shakersgogo.com,https://foursquare.com/v/shakers/4bf0b9c9f45ec928ba2f943c
...,$$$,True,,,Speakeasy,40.8421676075,-74.085989951,3,,https://foursquare.com/v/carlstadt-nj/4f6eae7ae4b0a4e210cfc1d5
RISE Lodi,$$,False,6.71,222,Nightclub,40.8738465126,-74.0871945157,2913,,https://foursquare.com/v/rise-lodi/4bccee4c8920b7134e0f9fdc
The Crow's Nest,$$,False,7.06,159,American Restaurant,40.8751889603,-74.0640425827,1807,http://www.crowsnest.com,https://foursquare.com/v/the-crows-nest/4bc6484b51b376b0d8521b6f
Freaky Frank's,$,True,,,Dive Bar,40.8445977284,-74.0446285703,1,,https://foursquare.com/v/freaky-franks/535c3a9b498e042282ddecc6
Van Olst Tiki Bar,$$,True,,,Wine Bar,40.87380896,-74.0478242166,577,,https://foursquare.com/v/van-olst-tiki-bar/4e35dc5de4cd9aba7cc99ab4
Andy's Corner Bar,$$,False,7.26,129,Bar,40.8728528075,-74.0214542248,1750,http://www.andyscornerbar.com,https://foursquare.com/v/andys-corner-bar/451ad4f2f964a5206a3a1fe3
Rusty Kale's Pub,$,True,6.4,67,Pub,40.8438626084,-73.9674818516,769,,https://foursquare.com/v/rusty-kales-pub/4ace8856f964a52012d120e3
Glen Lounge At Glenpointe Center,$$,True,5.9,45,Bar,40.8715660376,-74.005060074,508,,https://foursquare.com/v/glen-lounge-at-glenpointe-center/4bad6162f964a5200c4c3be3
Whiskey Pete's Bar & Cafe,$,False,,,Sports Bar,40.828021,-73.986525,1453,,https://foursquare.com/v/whiskey-petes-bar--cafe/4d098c92e023224b01a75bd2
La Marina NYC,$$$,True,8.27,411,Lounge,40.8687830989,-73.9320874214,3951,http://www.lamarinanyc.com,https://foursquare.com/v/la-marina-nyc/4faad0484fc68152ec7e368c
Indian Road Cafe,$$,False,9.22,662,American Restaurant,40.87291084,-73.918512,6107,http://www.indianroadcafe.com,https://foursquare.com/thetipsycow1
Papasito Mexican Grill And Agave Bar,$$$$,True,6.5,318,Bar,40.865874468,-73.927592127,2904,,https://foursquare.com/v/papasito-mexican-grill-and-agave-bar/4c312226a0ced13ad939136e
Maduro Cigars,,False,,,Smoke Shop,40.8433189392,-73.8856201172,3,,https://foursquare.com/v/maduro-cigars/535e8432498ec6eb76d85da7
Archer Sports Bar,$,True,,,Sports Bar,40.838125,-73.863491377,132,,https://foursquare.com/v/archer-sports-bar/4e8249980aafa751a4a6317d
The Golden Palace,,False,,,Other Nightlife,40.8353353241,-73.8554686932,24,,https://foursquare.com/v/the-golden-palace/4f24c449e4b067a327366afe
Eastwood Manor,,False,6.97,47,Other Nightlife,40.8763455575,-73.8462568477,845,http://www.eastwoodmanor.com,https://foursquare.com/v/eastwood-manor/4c42859ad7fad13a165f09da
Doyle's Pub,$$,True,,,Bar,40.8483644959,-73.8553653208,354,,https://foursquare.com/v/doyles-pub/4c2d2cfee116e21e7a308e60
Suzy's Stout Haus,,True,,,Strip Club,40.8370770287,-74.100894928,184,,https://foursquare.com/v/suzys-stout-haus/506748a6e0e2daa6cbe1491a
Blackjack Mulligan's Public House,$$,True,7.73,108,Bar,40.8698459267,-74.0972471237,844,http://blackjackmulligans.com,https://foursquare.com/blackjackmullig
The Rock Bar & Grill,$$,True,7.33,250,Bar,40.8398794112,-74.1342777014,3251,,https://foursquare.com/v/the-rock-bar--grill/4b832fc3f964a52065fc30e3
Bugsy's Bar East,$$$,False,,,Speakeasy,40.869,-74.06815,242,,https://foursquare.com/v/bugsys-bar-east/5038b110e4b0a9cf5927266d
Colonial Bar & Liquors,$$,False,,,Bar,40.8401315657,-74.005674091,541,,https://foursquare.com/v/colonial-bar--liquors/4d9fdac0c41ca143802b3ba3
Legends,$$,False,,,Bar,40.840281,-73.998242,934,,https://foursquare.com/v/legends/4b63a675f964a520b6892ae3
Raku Izakaya,$$,False,7.51,196,Japanese Restaurant,40.8513778,-73.970604,2203,,https://foursquare.com/v/raku-izakaya-fort-lee-nj/4baed85ff964a52096dc3be3
Inwood Local,$$,True,8.71,341,Wine Bar,40.868073,-73.92065391,3259,,https://foursquare.com/v/inwood-local/4d9f1c39daf0dcb397f7a8a3
District 12,$$,True,7.6,156,Cocktail Bar,40.8669913341,-73.922402381,1036,,https://foursquare.com/v/district-12/519db35c498e23bb24eb1e90
Apt 78,$$,True,8.38,407,Bar,40.856914,-73.932376,3306,,https://foursquare.com/v/apt-78/4d135d85d0fda093907cb257
Beso Lounge,$$$,True,7.15,43,Lounge,40.872493071,-73.8784791925,1306,,https://foursquare.com/v/beso-lounge/4cf0c3997bf3b60c0bba5b7f
Gun Hill Brewery,$,True,6.72,30,Brewery,40.8720063082,-73.8556237518,102,http://gunhillbrewing.com,https://foursquare.com/v/gun-hill-brewery/51aa0448498eae4438b5eb38
Deja Vu,$$,False,7.41,16,Bar,40.8640057235,-74.1039371676,121,,https://foursquare.com/v/deja-vu/4deb0707b0fb8293f7e5d524
Maggie's Bar and Restaurant,$$,False,,,Bar,40.8386318839,-74.0911121659,596,http://www.maggiesirishpub.com,https://foursquare.com/v/maggies-bar-and-restaurant/4c032b07310fc9b64b9fc561
Twins Go-Go Lounge,$$$,False,7.17,45,Strip Club,40.8629589821,-74.0961367341,471,http://twinsgogolounge.com,https://foursquare.com/v/twins-gogo-lounge/4dacce148154e1a040e003b8
Transfer Station,,False,,,Other Nightlife,40.840516,-74.052561,355,,https://foursquare.com/v/transfer-station-moonachie-nj/4f49b389e4b0b8ab47c6c685
101 Pub,$$,True,7.96,202,Bar,40.8684160437,-74.0223321358,2169,,https://foursquare.com/v/101-pub/4ba19d8df964a52006c437e3
Waterside On The Hudson,$$$,False,6.44,87,Lounge,40.7948910518,-73.9939041327,1133,,https://foursquare.com/v/waterside-on-the-hudson/4fac7ff0e4b08541e8f12653
New York Wing Factory,$$,False,7.15,78,Wings Joint,40.8499979557,-73.9704538824,542,http://nywingfactory.com,https://foursquare.com/v/new-york-wing-factory/5287fb45498ea6c480c2e7a2
Field MVP Club Lounge,$$$,False,,,Lounge,40.8295250779,-73.9269893428,33,,https://foursquare.com/v/field-mvp-club-lounge/5342c35f11d24c9299cebae2
Locksmith Bar,$$,True,8.93,409,Bar,40.8572431468,-73.9321617443,4493,,https://foursquare.com/v/locksmith-bar/4a89fe91f964a5209b0920e3
Castro Bar,$$,True,,,Bar,40.86173784,-73.9250661617,152,,https://foursquare.com/v/castro-bar/532b8820498e7cdf4e66b85a
Salsa Con Fuego,$$,False,7.42,59,Latin American Restaurant,40.8625938475,-73.9115803962,313,http://www.salsaconfuego.com,https://foursquare.com/v/salsa-con-fuego/50bd5089e4b0e53ea372c8ec
South of France,$$,False,,,Bar,40.8319978098,-73.8664660613,120,,https://foursquare.com/v/south-of-france/4c0703970e0a2d7f98ccec0c
The New York Botanical Gardens - The Rock Garden,$,False,5.91,64,Beer Garden,40.8644585933,-73.8824558258,1386,,https://foursquare.com/v/the-new-york-botanical-gardens--the-rock-garden/4beec73de24d20a1fd557314
i am at final fantasy x hq,$$$,False,,,Lounge,40.8671684265,-73.8689041138,44,,https://foursquare.com/v/i-am-at-final-fantasy-x-hq/52da1f10498e53fc3e0554e7
Step In Lounge and Restaurant,$$$,False,,,Lounge,40.8340188789,-73.861027753,23,,https://foursquare.com/v/step-in-lounge-and-restaurant/509d8986e4b00baa8c1a0c98
TGI Fridays,$$,False,6.12,427,American Restaurant,40.86348493,-73.83413315,4149,http://tgifridays.com,https://foursquare.com/v/tgi-fridays-bronx-ny/4ac18d7ff964a5207a9720e3
El Son Caribeno Restaurant & Bar,$$,False,,,Bar,40.8358162217,-73.840530814,5,,https://foursquare.com/v/el-son-caribeno-restaurant--bar/5227a9c311d29a4d82f71fc9
Gleasons Cafe,$$,False,6.02,49,Bar,40.854373,-73.843423,547,,https://foursquare.com/v/gleasons-cafe/4b9c7dc7f964a520336c36e3
Edgewater Wine and Spirits,$$,False,6.39,77,Hookah Bar,40.8139725551,-73.9831607609,860,,https://foursquare.com/v/edgewater-wine-and-spirits/4b897addf964a520533a32e3
S&R's Love Shack,,True,,,Strip Club,40.8261489868,-74.0068283081,20,,https://foursquare.com/v/srs-love-shack-ridgefield-nj/4ecb585ff5b90c1c33333db2
El Carretero,$,False,,,Sports Bar,40.798696972,-74.0088703906,117,,https://foursquare.com/v/el-carretero/4c06ac0ca0129c74b45fd2c9
El Morocco,$$,True,6.99,178,Nightclub,40.8261504612,-73.9503747225,1860,http://elmorocconyc.com,https://foursquare.com/v/el-morocco/4be7a8b1d837c9b6ed79a406
Tonelli Cafe & Bar,$$,False,8.75,270,Italian Restaurant,40.829249418,-73.9484013842,2664,,https://foursquare.com/v/tonelli-cafe--bar/4ba02868f964a520615e37e3
Buddha Beer Bar,$$,True,8.9,400,Bar,40.8573018493,-73.9321410656,3577,http://www.buddhabeerbar.com,https://foursquare.com/buddhabeerbar
Lucky 7 Tapas Bar,$$,True,7.19,110,Bar,40.8505203139,-73.9330630255,1034,,https://foursquare.com/v/lucky-7-tapas-bar/4e8d32ebb803ca3dfcbd112e
Tommy Bahama's Bar,$$,False,7.52,47,Bar,40.8289756304,-73.9277744293,722,,https://foursquare.com/v/tommy-bahamas-bar/4bf1ec69324cc9b672a5cc92
Stadium Pizza,$$,False,7.25,54,Bar,40.825573,-73.926574,690,,https://foursquare.com/v/stadium-pizza/4ac159f9f964a520dc9620e3
Yankee Bar & Grill,$$,True,7.11,61,Bar,40.827305,-73.926246,725,,https://foursquare.com/v/yankee-bar--grill/4dcdae3a7d8b975f18bbcffd
Howl At The Moon,$,False,6.45,196,Pub,40.857632,-73.886506,2025,,https://foursquare.com/v/howl-at-the-moon/4a73de62f964a5208fdd1fe3
L & V's Humble Abode,$$$,True,,,Nightclub,40.8590037208,-73.8848300054,18,,https://foursquare.com/v/l--vs-humble-abode/5363adc1498e4036c4ba0c6d
Mugz,$$,False,7.17,102,Bar,40.8573364818,-73.8859784125,1310,,https://foursquare.com/v/mugz/4a47aecff964a520f2a91fe3
Istanbul Cafe,,False,,,Hookah Bar,40.8474656523,-73.8675054674,65,,https://foursquare.com/v/istanbul-cafe/4ef56f65a69dea74f915b704
Pinstripes Bar And Grill,$$,True,,,Bar,40.8312486386,-73.8510638308,74,,https://foursquare.com/v/pinstripes-bar-and-grill/51aea671e4b0dccec4f98c1e
NYPD - 45th Precinct IDTU,,False,,,Brewery,40.8307980664,-73.8272976997,10,,https://foursquare.com/v/nypd--45th-precinct-idtu/530af37b498e151fbdda0173
Legacy Bar,$$,True,5.96,26,Bar,40.8418070394,-73.8432761147,304,,https://foursquare.com/v/legacy-bar/4d687ef46297721e8fcabcb5
Riverside Bar and Grill,$$,False,6.89,76,American Restaurant,40.8354656568,-74.1250770073,919,http://www.riversidebargrill.com,https://foursquare.com/v/riverside-bar-and-grill/4b6522f3f964a520d1e52ae3
The Heights Bar and Grill,$$,True,5.94,155,Bar,40.8602800833,-74.08008506,1888,http://heightsbarandgrill.com,https://foursquare.com/v/the-heights-bar-and-grill/4bb53fce46d4a59313d0c4c0
The Balcony Restaurant and Lounge,$$$,False,,,Restaurant,40.8390491113,-74.0947429461,616,http://www.thebalconylounge.com,https://foursquare.com/balconylounge
Coca Cola,,False,,,Office,40.833903,-74.058061,93,,https://foursquare.com/v/coca-cola/4bc44c7e4cdfc9b650679821
908 Lounge,$$$,False,,,Speakeasy,40.8289896506,-73.9794876754,583,,https://foursquare.com/v/908-lounge/4f3f13e0e4b0c47356b4e89c
Sal's Trattoria & Pizzeria Lounge,$$,False,6.53,75,Italian Restaurant,40.7904356684,-74.015245615,653,http://www.facebook.com/salspizzawny,https://foursquare.com/v/sals-trattoria--pizzeria-lounge/4c5b55917f661b8ddcc1451c
JaYuIn - 자유인,$$,True,7.34,116,Bar,40.8491365977,-73.9968022149,1453,,https://foursquare.com/v/jayuin--%EC%9E%90%EC%9C%A0%EC%9D%B8/4af39e9df964a520f4ee21e3
Lost Boys MC,,False,,,Other Nightlife,40.810818258,-74.0145111265,19,,https://foursquare.com/v/lost-boys-mc/4fdd6a6de4b06f69853c1c41
Harlem's Floridita,$$,False,6.9,89,Cuban Restaurant,40.8180046082,-73.9609680176,509,http://harlemsfloridita.com,https://foursquare.com/v/harlems-floridita/50cd10ffe4b0981e0a1a1c9e
G Bar,$$,True,7.34,98,Karaoke Bar,40.819380781,-73.9270926774,836,,https://foursquare.com/v/g-bar/4c831b9adc018cfa9a53d66c
Le Chéile,$$,False,8.64,452,Café,40.8513778822,-73.9400804043,4169,http://www.lecheilenyc.com,https://foursquare.com/v/le-ch%C3%A9ile/4e77e40118387f865961f673
Platinum Pleasures,$,False,,,Sports Bar,40.816000224,-73.8935634722,53,,https://foursquare.com/v/platinum-pleasures/505d49a5e4b08ab5c263d9b0
Malibu Terrace Deck,$$,False,6.61,105,Bar,40.8284885409,-73.9262723923,1177,,https://foursquare.com/v/malibu-terrace-deck/4bf044213a002d7fb1e785a4
The Dungeon,$,False,,,Sports Bar,40.8573734908,-73.8869947472,294,,https://foursquare.com/v/the-dungeon/51ae4158498efa56b0207494
SiscoVanilla's Lab,,True,,,Other Nightlife,40.8174858093,-73.8576049805,25,,https://foursquare.com/v/siscovanillas-lab-bronx-ny/5114271fe4b015c9fbfbfc94
Ling's Domain,$$$,False,,,Lounge,40.8595012795,-73.8557386099,748,,https://foursquare.com/v/lings-domain/4f2b3d85e4b06f8245f8f320
Throggs Neck Clipper,$$,True,5.62,75,Bar,40.8290380325,-73.8243856064,684,http://lovethebooze.com,https://foursquare.com/v/throggs-neck-clipper/4b477f53f964a5200b3426e3
Jimmy Ryan's,$$,True,5.83,116,Dive Bar,40.8440734181,-73.8301925192,1165,,https://foursquare.com/v/jimmy-ryans/4a98d51af964a520492d20e3
le trapeze,$$$,False,,,Lounge,40.8145523071,-73.8360214233,3,,https://foursquare.com/v/le-trapeze/4f418974e4b029502a4c52f5
Uno Chicago Grill,$,False,7.5,354,American Restaurant,40.8306665152,-74.1395397331,3500,http://www.unos.com,https://foursquare.com/v/uno-chicago-grill-clifton-nj/4ada577af964a520932121e3
Renaissance Meadowlands Concierge Lounge,$$$,False,,,Hotel Bar,40.8111783029,-74.1034698486,44,,https://foursquare.com/v/renaissance-meadowlands-concierge-lounge/4e5ccbd062e1ef715a50731a
Railroad Café,$$,False,6.53,94,Bar,40.828445674,-74.1001689103,874,http://www.restaurantpassion.com,https://foursquare.com/v/railroad-caf%C3%A9/4bad4a4bf964a5209b423be3
Stiletto,$$$,False,,,Strip Club,40.828762796,-74.0812175046,420,http://www.laceclubs.com,https://foursquare.com/v/stiletto/4c353d0b16adc9280099c69c
Weehawken Elks,$$,False,,,Bar,40.7794423001,-74.012324859,288,,https://foursquare.com/v/weehawken-elks/4c744da42db5236ab4fbb979
705 Lounge,,False,,,Bar,40.8289576286,-73.9796368959,603,,https://foursquare.com/v/705-lounge/4f27b226e4b015cb4e0dccba
Tonnelle Wine & Liquors,$$,False,,,Karaoke Bar,40.8104210506,-74.0130593559,262,http://www.tonnelleliquors.com,https://foursquare.com/v/tonnelle-wine--liquors/4cc36edbb2beb1f762b9164c
Paddy's,$$,True,7.43,130,Bar,40.8146035208,-73.9589974592,1558,,https://foursquare.com/v/paddys/4b2dc392f964a52028db24e3
The Hudson River Cafe,$$$,False,8.6,432,American Restaurant,40.82013,-73.959088,4233,,https://foursquare.com/v/the-hudson-river-cafe-new-york-ny/4a3d29e6f964a520e6a11fe3
Harlem BBQ,$$,False,6.55,189,BBQ Joint,40.8115190627,-73.9502726727,1705,http://www.harlembarbq.com,https://foursquare.com/harlembarbq
Heights Tavern,$$,True,7.52,250,Bar,40.8381809502,-73.9415073395,1722,,https://foursquare.com/v/heights-tavern/51c23694454a225597fd4ae7
Black Falcons M.C.,,False,,,Nightlife Spot,40.810669997,-73.9016764613,81,,https://foursquare.com/v/black-falcons-mc/4cefc8d30acea35d4860f0ae
Coogan's,$$,False,8.6,652,American Restaurant,40.8415358603,-73.9395842726,6507,http://www.coogans.com,https://foursquare.com/v/coogans/3fd66200f964a52080e81ee3
The Bronx Beer Hall,$$,True,8.76,203,Bar,40.8540559055,-73.8888072968,1060,http://www.thebronxbeerhall.com,https://foursquare.com/v/the-bronx-beer-hall-bronx-ny/50e600a4526287052c53bb99
Skyline Bar & Lounge,$$$,True,,,Lounge,40.8529541728,-73.8426615842,65,http://facebook.com/skylinebarloungebx,https://foursquare.com/v/skyline-bar--lounge/526348c3498e9055a723eda9
AMF Wallington Lanes,,False,7.89,249,Bowling Alley,40.8466690168,-74.1101256636,3647,http://www.http://www.amf.com/wallingtonlanes,https://foursquare.com/v/amf-wallington-lanes/4ba032ecf964a520096137e3
Lexus Gridiron Club,$$,False,,,Bar,40.8135493905,-74.074652195,866,,https://foursquare.com/v/lexus-gridiron-club/4c727e371b11199c42115913
TGI Fridays,$$,False,7.37,518,American Restaurant,40.84859425,-74.07643318,5367,http://tgifridays.com,https://foursquare.com/v/tgi-fridays/4b5b4bd6f964a52071f228e3
NYC Skyline From Jersey,,False,,,Other Nightlife,40.811102019,-74.0601071605,54,,https://foursquare.com/v/nyc-skyline-from-jersey/51d73ffe498e78da552ac211
Ozbar,$$,False,7.04,47,Bar,40.822028,-73.99038295,769,,https://foursquare.com/v/ozbar-cliffside-park-nj/4e92555bd22d95ed0d553aac
Sean + June Bar & Kitchen,$$$,False,6.92,91,Gastropub,40.8229494899,-73.9878725381,943,,https://foursquare.com/v/sean--june-bar--kitchen/4fe655ebe4b0116a383c8ea6
Spirit Lounge,$,False,5.84,166,Hookah Bar,40.81413152,-73.983247,1750,,https://foursquare.com/v/spirit-lounge/4bb2b5a44019a593643f37b8
Toast Uptown,$$,False,8.44,445,American Restaurant,40.814755,-73.958872,4735,http://www.toastnyc.com/uptown,https://foursquare.com/v/toast-uptown/3fd66200f964a52067e81ee3
Max SoHa,$$,False,8.73,269,Italian Restaurant,40.811205,-73.957782,1837,http://www.maxsoha.com,https://foursquare.com/v/max-soha-new-york-ny/3fd66200f964a52006e91ee3
Tio Luca Cocina & Vino Bar,$$,False,6.86,27,Tapas Restaurant,40.8117467221,-73.9427947998,162,http://tioluca.com,https://foursquare.com/v/tio-luca-cocina-vino-bar-new-york-ny/51b3f56c7dd23d8b83b48211
Jim Beam Suite Lounge,$,False,5.99,77,Sports Bar,40.8294131395,-73.9273223096,1521,http://mlb.mlb.com/nyy/ticketing/suites_jimbeam.jsp,https://foursquare.com/v/jim-beam-suite-lounge/4c86dd8f51ada1cddaa54310
Giovanni's Restaurant,$$,True,7.72,211,Bar,40.819472679,-73.9271494746,1838,http://www.giovanninyc.com,https://foursquare.com/v/giovannis-restaurant/4b4653b4f964a520b41d26e3
Vega Alta,$$,True,7.79,80,Bar,40.8278914787,-73.9247217094,1045,,https://foursquare.com/v/vega-alta/4aa71d89f964a520fa4b20e3
Area 98,$$,False,7.63,54,Bar,40.8472868475,-73.832168324,1337,,https://foursquare.com/v/area-98/4e824f2c55037c6fb2274fa2
Shamrock Inn,$$,True,6.88,40,Bar,40.8460843563,-73.831933,773,,https://foursquare.com/v/shamrock-inn/4cc221ee91413704611db255
The Shannon Rose Irish Pub,$$,True,7.7,1534,Irish Pub,40.8253061344,-74.1381025314,14315,https://www.facebook.com/shannonrosepubs,https://foursquare.com/v/the-shannon-rose-irish-pub/4a90a5caf964a520f01820e3
Red Robin Gourmet Burgers,$$,False,8.05,850,Burger Joint,40.8272708013,-74.1346049309,7956,http://www.redrobin.com,https://foursquare.com/v/red-robin-gourmet-burgers-clifton-nj/4c4b8380bad7a5934110efab
The Fiesta,$$$,False,6.69,142,Cocktail Bar,40.8459054781,-74.0783207084,2043,http://www.fiestabanquets.com,https://foursquare.com/v/the-fiesta/4bdc9c9fccf52d7f0890786d
Dragonfly Marina Bar And Grill,$$$,True,4.97,73,Nightclub,40.8076959728,-74.0605202115,907,,https://foursquare.com/v/dragonfly-marina-bar-and-grill/4cafcca7cbab236aeb469b73
The Claw,,False,,,Strip Club,40.786175532,-74.0312487279,10,,https://foursquare.com/v/the-claw/4fa9520be4b022fdec603416
Maria Mentiras Bar & Grill,$$,False,7.31,50,Latin American Restaurant,40.7711737346,-74.0283465385,170,http://mariamentirasbarandgrill.com,https://foursquare.com/v/maria-mentiras-bar--grill/50dca756ebca321cfefb2ea9
Vareli,$$$,False,8.66,387,Mediterranean Restaurant,40.8051235852,-73.9660516199,3333,http://www.varelinyc.com,https://foursquare.com/v/vareli/4b93503af964a520a43f34e3
the 'dam,$,True,7.81,165,Bar,40.8026549595,-73.9642378815,1593,,https://foursquare.com/v/the-dam/4f56ac7ce4b0c3b3a77ca3d5
Amsterdam Restaurant & Tapas Lounge,$$,False,6.29,295,Tapas Restaurant,40.80896,-73.9596,3002,http://www.amsterdamrestaurant.com/home.aspx,https://foursquare.com/v/amsterdam-restaurant--tapas-lounge/46cf42a9f964a520464a1fe3
Moca Lounge,$$$,True,8.57,227,Lounge,40.806373149,-73.9538429948,1853,,https://foursquare.com/v/moca-lounge-new-york-ny/4ad7edadf964a520251021e3
Cove Lounge,$$,True,8.65,145,Lounge,40.8087533885,-73.9451983393,1160,http://www.coveloungenyc.com,https://foursquare.com/coveloungenyc
Charlies Bar & Kitchen,$$$,False,6.62,28,Cocktail Bar,40.8077527664,-73.9293373202,117,http://www.charliesbarkitchen.com,https://foursquare.com/v/charlies-bar--kitchen/52a79fbc498e07819893749d
The Grange Bar & Eatery,$$$,True,8.84,300,Cocktail Bar,40.822562683,-73.9495838569,1793,,https://foursquare.com/v/the-grange-bar-eatery-new-york-ny/51b15855498e85fb32404731
Sin City Gentlemen's Cabaret,,True,7.28,313,Strip Club,40.8121495718,-73.9304510208,3574,,https://foursquare.com/v/sin-city-gentlemens-cabaret/4c16b4f5cd4bc9b698d74eeb
Delta SKY360° Suite,$$$,False,8.54,201,Lounge,40.829472027,-73.9268515633,2633,http://www.delta.com,https://foursquare.com/v/delta-sky360-suite/4c9ff17103133704920477d5
Audi Yankees Club,$$$,False,6.84,132,Lounge,40.8304571725,-73.9263635874,2360,http://www.facebook.com/audiusa,https://foursquare.com/v/audi-yankees-club/4bf4a31894af2d7f3ae63a72
Mohegan Sun Sports Bar,$,False,6.51,136,Sports Bar,40.829564,-73.927583,2534,http://www.yankees.com,https://foursquare.com/v/mohegan-sun-sports-bar-bronx-ny/4ba508aff964a5206dd338e3
The Oven,$$$,True,,,Lounge,40.8195092159,-73.8794517517,16,,https://foursquare.com/v/the-oven/4eed3a127beb9f550a6d8af0
group home headquaters,$$$,False,,,Speakeasy,40.811966,-73.860802,1,,https://foursquare.com/v/group-home-headquaters/536d5913498e33148dcfbb9f
Tropicana Theatere & Lounge,$$$,False,6.97,49,Lounge,40.8408734554,-73.8798228717,642,http://www.tropicanany.com,https://foursquare.com/v/tropicana-theatere--lounge/4bb2d8f214cfd13abf7c15ab
Sapitos sports grill,$$,False,6.63,83,Bar,40.8372868375,-73.8342819538,524,,https://foursquare.com/v/sapitos-sports-grill/4f0760c5e4b05f830c649851
Legendary Bar and Restaurant,$$,False,7.52,37,American Restaurant,40.8308964492,-73.8264131631,697,,https://foursquare.com/v/legendary-bar-and-restaurant/4d9cc174baae548104a4e264
Bruckner & Castle Hill Liquors,$$,False,,,Other Nightlife,40.8275062327,-73.8500976562,225,,https://foursquare.com/v/bruckner--castle-hill-liquors/4e34417963657eebff440be8
McDermott's Pub,$$,True,5.82,66,Pub,40.8427031599,-73.8460271204,605,,https://foursquare.com/v/mcdermotts-pub/4d5f3bc6196ba093879f0b56
"Bronx, NY",$$$,False,,,Speakeasy,40.8408029405,-73.8297560015,51,,https://foursquare.com/v/bronx-ny/4cf4830ae3b9a09323754f53
Emerald Corner,$,True,7.77,195,Bar,40.827715498,-74.1314769875,2363,,https://foursquare.com/v/emerald-corner/4b3311eaf964a5206c1725e3
Rockafella's Sports Bar & Grill,$$,True,7.09,70,Bar,40.8401825072,-74.1008743889,1092,,https://foursquare.com/v/rockafellas-sports-bar-grill-east-rutherford-nj/4c59b0f967ac0f47a4dd044c
The Graycliff,,False,7.22,57,Event Space,40.8342914234,-74.0532687397,1303,,https://foursquare.com/v/the-graycliff/4ba54a11f964a5209ef638e3
Wild Rover Irish Pub,$$,False,7.26,109,Pub,40.79338155,-74.00259,1496,,https://foursquare.com/v/wild-rover-irish-pub/4b512a16f964a520844527e3
The Squeeze Lounge,,True,7.16,104,Strip Club,40.7595667341,-74.028081492,1653,,https://foursquare.com/v/the-squeeze-lounge/4b94757bf964a5204f7a34e3
HAVEN Riverfront Restaurant & Bar,$$$$,False,6.86,24,New American Restaurant,40.803368,-73.990922,255,http://www.havenedgewater.com,https://foursquare.com/v/haven-riverfront-restaurant--bar/52548d8d498ece014717e38e
Beyoglu Cafe & Lounge,$$,False,8.08,141,Hookah Bar,40.812395,-73.98861,1131,,https://foursquare.com/v/beyoglu-cafe--lounge/51e89fa3498ea81b8d4f9f9d
The Abbey Pub,$$,True,8.41,244,Bar,40.8005103345,-73.9676357573,3139,http://www.facebook.com/pages/abbey-pub-nyc/111549288886077,https://foursquare.com/v/the-abbey-pub/40f32600f964a520710a1fe3
Suite,$,False,8.33,261,Gay Bar,40.802403,-73.964383,3112,,https://foursquare.com/v/suite/4391dab8f964a520632b1fe3
The West End Lounge,$$,True,7.54,259,Bar,40.8023040839,-73.9679858728,2985,http://thewestendlounge.com,https://foursquare.com/v/the-west-end-lounge-new-york-ny/424de080f964a520af201fe3
La Bodega 47 Social Club,$$$,True,7.55,35,Cocktail Bar,40.8034635619,-73.9487171173,150,,https://foursquare.com/v/la-bodega-47-social-club/52f1b86c498e1692de481d92
Layali Dubai,$$,False,7.31,84,Middle Eastern Restaurant,40.7686404398,-73.9109839765,668,,https://foursquare.com/v/layali-dubai/4ed859590aaf49e02718d9d6
Anheuser-Busch of New York,$$,False,,,Wine Bar,40.8060367446,-73.8702446494,157,http://www.anheuser-busch.com,https://foursquare.com/v/anheuserbusch-of-new-york/4bfd33b48992a59359b8abb0
Vapor Lounge,$,False,,,Hookah Bar,40.8260008098,-73.8215194215,33,,https://foursquare.com/v/vapor-lounge/531c1088498e84796335a0a8
The Wicked Wolf,$,True,7.54,144,Pub,40.819719,-73.817414,1765,http://www.wickedwolfny.com,https://foursquare.com/v/the-wicked-wolf/4b5a3c87f964a5207fb628e3
King's Tavern,,False,,,Speakeasy,40.8078202683,-74.1065467992,11,,https://foursquare.com/v/kings-tavern/51313aebe4b0dc2004bf636d
Taos Restaurant,$$,True,7.42,241,Bar,40.8373630866,-74.0998305091,2312,,https://foursquare.com/v/taos-restaurant-east-rutherford-nj/4a3444b1f964a520029c1fe3
"Hookah Time, Inc.",,False,,,Hookah Bar,40.797871,-74.059622,1052,,https://foursquare.com/v/hookah-time-inc/4c449d7e74ffc9288fce75cc
Las Tapas de España,$$$,False,7.55,183,Spanish Restaurant,40.8020829347,-74.0064382553,2150,http://www.tapasnj.com,https://foursquare.com/v/las-tapas-de-espa%C3%B1a/4b63785af964a520587c2ae3
Waterside Restaurant & Catering,$$$,False,6.74,182,Restaurant,40.7949119645,-73.9939729986,2012,https://www.facebook.com/watersiderestaurantandcatering,https://foursquare.com/v/waterside-restaurant--catering/4c13eff2b7b9c928837eaa37
Toast 105,$$,False,8.32,428,Burger Joint,40.800364,-73.9679327167,4342,http://www.toastnyc.com,https://foursquare.com/v/toast-105/49dbc81ff964a520035f1fe3
Broadway Dive Bar,$,True,8.23,212,Bar,40.797968,-73.969418,2290,,https://foursquare.com/v/broadway-dive-bar/40a2ba80f964a520fbf21ee3
1020 Bar,$,True,8.85,609,Bar,40.803132,-73.964,6760,,https://foursquare.com/v/1020-bar/3fd66200f964a5205be81ee3
Village Pourhouse,$$,True,8.81,1363,Sports Bar,40.8022647941,-73.9643756344,11504,,https://foursquare.com/v/village-pourhouse/4a3f055ff964a520a4a31fe3
Havana Central at The West End,$$$,False,8.42,740,Cuban Restaurant,40.8064786208,-73.9650930958,7321,http://www.havanacentral.com,https://foursquare.com/v/havana-central-at-the-west-end/4a886be4f964a5205d0620e3
Bier International,$$,True,8.68,755,Beer Garden,40.8026782168,-73.9564948634,6261,http://www.facebook.com/bierinternational,https://foursquare.com/v/bier-international/4c0eff27cd8eb71322b8ef94
The Park 112,$$$,True,7.15,86,Cocktail Bar,40.8017093483,-73.9571714401,579,http://www.thepark112.com,https://foursquare.com/v/the-park-112/51f69f9950192a595c5ba99a
67 Orange Street,$$$,True,8.88,435,Cocktail Bar,40.8022697271,-73.9568549395,3185,http://www.67orangestreet.com,https://foursquare.com/v/67-orange-street-new-york-ny/4ade4af8f964a520b67421e3
Vinatería,$$$,True,8.89,214,Wine Bar,40.8064041006,-73.9540151951,1159,http://www.vinaterianyc.com,https://foursquare.com/v/vinater%C3%ADa/50de1112498edccad97ae46a
The Glitter Lounge,$$,True,,,Gay Bar,40.7938881281,-73.9426955649,471,,https://foursquare.com/v/the-glitter-lounge/5053f54ee4b09ebc6e93cbe2
Barawine,$$$,True,8.35,166,Wine Bar,40.8044848738,-73.9476666403,838,http://barawine-hub.com,https://foursquare.com/v/barawine/51fc3376498ed77401d4b80f
Harlem Public,$$,True,9.03,1006,Bar,40.8286509045,-73.9485454559,6763,http://www.harlempublic.com,https://foursquare.com/harlempublic
Hard Rock Cafe Yankee Stadium,$$,False,8.99,537,American Restaurant,40.8283911225,-73.9261007309,7751,http://www.facebook.com/hardrock,https://foursquare.com/v/hard-rock-cafe-yankee-stadium/4ab659aff964a520b17620e3
Yankee Tavern,$$,True,8.45,257,Sports Bar,40.827334,-73.92513,3362,http://yankeetavern.com,https://foursquare.com/v/yankee-tavern-bronx-ny/3fd66200f964a520def01ee3
Hops,$$,True,7.75,251,Beer Garden,40.8335017907,-73.8288657322,2176,http://www.nickysbbq.com,https://foursquare.com/v/hops/4e56d0bcc65bf822645924f6
Taqueria Tlaxcali,$,False,8.07,185,Mexican Restaurant,40.8360928451,-73.8549862881,1024,,https://foursquare.com/v/taqueria-tlaxcali/4b4929d2f964a520656826e3
Vesta Wood Fired Pizza & Bar,$$,False,8.08,222,Pizza Place,40.8340015256,-74.0901944221,1938,http://www.vestapizzeria.com,https://foursquare.com/v/vesta-wood-fired-pizza--bar/4d348bc5329e5481ec21c31d
Smith's Dungeon,,False,,,Speakeasy,40.7946514088,-74.0627575558,45,,https://foursquare.com/v/smiths-dungeon/5025c60ae4b0352ef8be01e9
Mundo's,,False,,,Sports Bar,40.8027430018,-74.0598891609,51,,https://foursquare.com/v/mundos/4fc8403fe4b03c0375554447
Pier 115 Bar & Grill,$$$,False,7.3,155,New American Restaurant,40.8035914395,-73.9877807141,1393,http://www.pier115barandgrill.com,https://foursquare.com/v/pier-115-bar--grill/51d88578498ef3b3e9b5e975
B. Cafe West,$$,False,7.91,312,Gastropub,40.7885995011,-73.974276365,2939,http://www.bcafe.com,https://foursquare.com/v/b-cafe-west/4a494688f964a52029ab1fe3
Amsterdam Tavern,$$,False,9.09,465,American Restaurant,40.800689,-73.965565,5131,http://amsterdamtavernnyc.com,https://foursquare.com/v/amsterdam-tavern/4d86ae0a99b78cfa7b2bea1f
Lion's Head Tavern,$$,True,8.87,486,Sports Bar,40.8023948572,-73.9642493609,6471,,https://foursquare.com/v/lions-head-tavern/424c8f00f964a5209e201fe3
The Heights Bar & Grill,$$,True,9.11,877,Restaurant,40.805097,-73.966071,8275,http://www.theheightsnyc.com,https://foursquare.com/v/the-heights-bar--grill/424de080f964a520b6201fe3
Ding Dong Lounge,$,True,8.89,412,Bar,40.7988408758,-73.9630612383,4218,http://dingdonglounge.com,https://foursquare.com/1dingdonglounge
Cantina 1838,$$,False,8.01,89,Mexican Restaurant,40.8001957461,-73.9548876746,761,,https://foursquare.com/v/cantina-1838/522e46a111d29f4e62135e9a
The Lexington Social,$$,True,8.74,292,Bar,40.7905661845,-73.9475690569,2415,http://www.lexingtonsocialnyc.com,https://foursquare.com/v/the-lexington-social/4c2d489a3a4d0f47e8b3e386
Prime One 16,$$,True,7.11,43,Bar,40.79620474,-73.9355314811,307,,https://foursquare.com/v/prime-one-16/51803250e4b085cc900cab51
Lenox Coffee,$,False,9.37,568,Coffee Shop,40.8100901728,-73.9432668686,4230,http://www.lenoxcoffee.com,https://foursquare.com/lenoxcoffee
Stan's Sports Bar,$,False,8.74,650,Sports Bar,40.826772,-73.9263815,8507,http://stanssportsbar.com,https://foursquare.com/v/stans-sports-bar/3fd66200f964a520dff01ee3
The Bachelor's Lounge,$$$,False,,,Lounge,40.817516,-73.889378,391,,https://foursquare.com/v/the-bachelors-lounge/517bb4a4e4b0192de1b18e19
Step-In Restaurant,$$,False,8.07,117,Diner,40.8341629123,-73.8611376286,1876,,https://foursquare.com/v/stepin-restaurant/4b2084bdf964a520de3224e3
Park Tavern & Restaurant,$$,False,7.18,359,Bar,40.829092,-74.100352,3261,http://www.parktavern.com,https://foursquare.com/v/park-tavern--restaurant/4bcbc76e0687ef3b296edecc
Eros Cafe,$$,False,6.89,342,Hookah Bar,40.8278710618,-74.1019067918,3063,http://www.eroscafe.com,https://foursquare.com/v/eros-cafe/4b5bac53f964a520250f29e3
Blarney Station Pub,$$,False,6.64,219,Irish Pub,40.828888,-74.100579,2403,http://www.blarneystation.com,https://foursquare.com/v/blarney-station-pub/4b7c1604f964a5200a7c2fe3
Pool House Lounge,,False,,,Lounge,40.795657,-74.065215,166,,https://foursquare.com/v/pool-house-lounge/4df6b16ed1642d7385a4937e
Retro Fitness,,False,6.6,130,Gym,40.7944250094,-74.0174892302,3399,http://jerseycitynj.retrofitness.net/web/us/en/locationdetail.dhtml,https://foursquare.com/v/retro-fitness/4e7e815dbe7b92ffeec504d3
Añejo,$$$,False,9.03,658,Mexican Restaurant,40.762783021,-73.993037569,5470,http://www.anejonyc.com,https://foursquare.com/v/a%C3%B1ejo/4ec2947729c25ce5a3371338
St. James Gate Publick House,$$,True,8.22,332,Bar,40.784417,-73.977345,4457,http://www.stjamesgatenyc.com,https://foursquare.com/v/st-james-gate-publick-house/49f13760f964a5209e691fe3
Blockheads Burritos,$$,False,7.2,229,Mexican Restaurant,40.79075,-73.972611,2398,,https://foursquare.com/v/blockheads-burritos/4ec00e278b81127c0b497af2
Five Lamps Tavern,$$,False,8.53,532,Gastropub,40.8010433847,-73.9677500725,4995,http://www.fivelampstavern.com,https://foursquare.com/v/five-lamps-tavern/4f1d8d0c77166bf6d1425c4a
Starbucks,$,False,8.19,378,Coffee Shop,40.793864,-73.972744,5810,http://www.starbucks.com,https://foursquare.com/v/starbucks/4bf9c0985efe2d7fb5c96c34
Ricardo Steak House,$$,False,8.64,376,Steakhouse,40.7934636518,-73.9405716253,2817,http://www.ricardosteakhouse.com,https://foursquare.com/v/ricardo-steak-house/4ad90e1df964a520981721e3
Camaradas El Barrio,$$,True,9.01,294,Bar,40.7955044074,-73.9357955466,3265,,https://foursquare.com/v/camaradas-el-barrio/42d84e00f964a5202a261fe3
Dugout,$$,True,8.91,587,Bar,40.8283974196,-73.9253876501,7221,,https://foursquare.com/v/dugout/4bc490c7b492d13af22eaa60
Billy's Sports Bar,$$,True,8.42,609,Sports Bar,40.8272071462,-73.9260306251,8235,http://www.billyssportsbar.net,https://foursquare.com/v/billys-sports-bar-bronx-ny/3fd66200f964a520e1f01ee3
Paddy's On The Bay,$,True,7.62,114,Bar,40.8101250997,-73.8035402025,1356,,https://foursquare.com/v/paddys-on-the-bay/4d55435a611aa35d29c23239
Brewski's Bar & Grill,$$,True,7.02,99,Bar,40.8265973209,-73.8225016258,1076,,https://foursquare.com/v/brewskis-bar--grill/4f2e27bee4b010c5f6982ad7
Park Avenue Bar & Grill,$$,True,7.17,176,Other Nightlife,40.7709462589,-74.0229460972,1771,http://www.parkavebargrill.com,https://foursquare.com/v/park-avenue-bar--grill/4d698d930a25b60c12682690
Taylor' s hangout,,False,,,Bar,40.7878574257,-74.0634631743,544,,https://foursquare.com/v/taylor-s-hangout/4f1b7743e4b0850c84498d27
Kilroy's,$$,True,6.79,50,Bar,40.8263208579,-74.0563552387,433,,https://foursquare.com/v/kilroys/5296a64f11d2c42380db4317
Burke & Wills,$$,False,7.82,123,Australian Restaurant,40.7834985225,-73.9795732498,710,http://www.burkeandwillsny.com,https://foursquare.com/v/burke--wills/51e773a850190e36800d5ccd
The Parlour,$$,True,8.76,705,Bar,40.7885466815,-73.9769681278,8143,https://www.facebook.com/parlourbar?ref=hl,https://foursquare.com/v/the-parlour/3fd66200f964a52064e91ee3
McAleer's Pub & Restaurant,$$,True,8.64,381,Bar,40.7840318155,-73.9777429352,5103,,https://foursquare.com/v/mcaleers-pub--restaurant/3fd66200f964a52051e81ee3
Barley & Grain,$$,True,7.86,199,Whisky Bar,40.7839008293,-73.9779151143,954,,https://foursquare.com/v/barley--grain/52001d38498ebd3217fbe9de
The Tangled Vine Wine Bar & Kitchen,$$,True,8.97,485,Wine Bar,40.7844290146,-73.9774100554,4383,http://www.tangledvinebar.com,https://foursquare.com/tangled_vine
Bourbon Street,$,True,8.14,499,Sports Bar,40.7833685433,-73.9781999588,7470,http://www.bourbonstreetnyc.com,https://foursquare.com/v/bourbon-street/407dd080f964a5207af21ee3
5 Napkin Burger,$$$,False,8.76,1023,Burger Joint,40.7870282486,-73.9775822347,9817,,https://foursquare.com/v/5-napkin-burger/4b67772af964a520ae502be3
Hi-Life,$$,True,8.26,536,American Restaurant,40.785677,-73.976498,6538,http://www.hi-life.com/,https://foursquare.com/v/hilife/4a541923f964a52008b31fe3
Dive Bar,$$,True,8.43,944,Dive Bar,40.7939595956,-73.9704883195,9974,http://www.divebarnyc.com,https://foursquare.com/v/dive-bar/3fd66200f964a5205ce81ee3
Fetch Bar and Grill,$$,False,8.98,577,American Restaurant,40.782791,-73.950917,5439,http://www.fetchbarandgrillnyc.com,https://foursquare.com/v/fetch-bar-and-grill/40ca4780f964a5200f011fe3
Kinsale Tavern,$$,True,8.63,462,Bar,40.783731985,-73.9504430376,5443,http://www.kinsale.com,https://foursquare.com/v/kinsale-tavern/3fd66200f964a52008eb1ee3
Barking Dog Luncheonette,$$,False,8.08,399,Diner,40.783883,-73.9503932152,4245,http://www.barkingdog94.com,https://foursquare.com/barkingdog94
Earl's Beer & Cheese,$$,True,9.47,1008,Bar,40.7874053417,-73.9519660009,5048,http://www.earlsny.com,https://foursquare.com/v/earls-beer--cheese/4d1e8f8e5acaa35dfb7eb835
Corner Social,$$,False,9.01,1000,American Restaurant,40.8085341591,-73.9451237158,7695,http://www.cornersocialnyc.com,https://foursquare.com/v/corner-social/4f628d17e4b0ce431b69bafc
Tosca Café,$$,True,8.61,449,Bar,40.8190829518,-73.8173639774,3751,http://www.toscanyc.com,https://foursquare.com/v/tosca-caf%C3%A9/4b4b9f1df964a5201fa226e3
TAO Bar And Lounge,$$,False,,,Bar,40.785655002,-73.8479108766,189,,https://foursquare.com/v/tao-bar-and-lounge/4f31d80be4b0d77c28893813
City Lounge,$$,False,6.67,82,Dive Bar,40.81109,-74.12251,1850,,https://foursquare.com/v/city-lounge/4ba24e91f964a520b8eb37e3
The Cove Club,,False,,,Bar,40.7896578875,-74.0751944131,167,,https://foursquare.com/v/the-cove-club/4e2a2d8c45dd3272c8053cae
Victory Sports Bar and Club,$$,False,7.02,14,Bar,40.820186664,-74.0714657364,117,,https://foursquare.com/v/victory-sports-bar-and-club/52a29c8711d269739cb46b11
Tolani Eatery & Wine,$$,False,8.48,307,Tapas Restaurant,40.783508,-73.978031,2988,http://tolaninyc.com,https://foursquare.com/v/tolani-eatery--wine/4ca285afd5a2a143bfaf4190
Blondies,$$,True,9.09,1016,Sports Bar,40.7834599735,-73.9791031452,10489,http://blondiessports.com,https://foursquare.com/v/blondies/3fd66200f964a52044e81ee3
The Dead Poet,$$,True,9.02,849,Bar,40.78482,-73.977128,10680,http://thedeadpoet.com,https://foursquare.com/thedeadpoetbar
Dylan Murphy's,$$,True,8.87,276,Bar,40.776336,-73.95584,4853,http://www.dylanmurphysbar.com,https://foursquare.com/v/dylan-murphys/4a18b5e7f964a520e0791fe3
The Gael Pub,$,True,8.24,404,Pub,40.7766598545,-73.9556166512,5218,,https://foursquare.com/v/the-gael-pub/44113ab4f964a520c8301fe3
Genesis Bar & Restaurant,$$,True,8.48,452,Sports Bar,40.779525443,-73.9505080175,5539,http://www.genesisbar.com,https://foursquare.com/v/genesis-bar--restaurant/45fbbe93f964a52061441fe3
Off The Rails,$$,True,8.35,412,Pub,40.7813375646,-73.9493657315,4663,http://www.offtherailsnyc.com,https://foursquare.com/v/off-the-rails/4e320d2de4cd60250188c58d
Merrion Square,$,True,8.19,428,Pub,40.7834759832,-73.9475575765,4277,http://www.merrionnyc.com,https://foursquare.com/v/merrion-square/40df5f80f964a52094011fe3
ABV,$$,True,9.1,747,Wine Bar,40.7866205882,-73.9504907971,4463,,https://foursquare.com/v/abv/4f0f2da5e4b01660de447b3b
Harlem Tavern,$$,False,8.91,2147,American Restaurant,40.8047420239,-73.9554387123,17044,http://www.harlemtavern.com,https://foursquare.com/v/harlem-tavern/4deffce2b0fbfee72f3cacde
Winterfel,$$,False,,,Brewery,40.7832087813,-73.8427247603,226,,https://foursquare.com/v/winterfel/4f71e5b6e4b0125a71532f44
10 Points KTV,$$,False,,,Karaoke Bar,40.7814638836,-73.8411970411,164,,https://foursquare.com/v/10-points-ktv/507b1800e4b0602b6389514f
Euro Lounge Café,$$$,True,6.95,84,Lounge,40.7918196282,-74.1420227134,1225,,https://foursquare.com/v/euro-lounge-caf%C3%A9/4b3a1314f964a520c86025e3
Crossbow's,,False,,,Home (private),40.8004855387,-74.0593871874,1287,,https://foursquare.com/v/crossbows/4d11595290d0a14301349d09
Marty Gras,$$,True,,,Bar,40.8001373728,-74.116594976,403,,https://foursquare.com/v/marty-gras/4bb9815198c7ef3b25293202
Blue Room Lounge,$$,False,,,Bar,40.7702617606,-74.0581164712,287,,https://foursquare.com/v/blue-room-lounge/4d69b01db6f46dcb796226b2
Redd's Restaurant,$$,False,7.33,189,American Restaurant,40.81749624,-74.0658553735,2292,http://www.reddsrestaurant.com,https://foursquare.com/v/redds-restaurant/4bab7b51f964a520c5ac3ae3
Brother Jimmy's BBQ,$$,False,8.84,981,BBQ Joint,40.7841329847,-73.9776224098,12014,http://www.facebook.com/brotherjimmysbbq,https://foursquare.com/v/brother-jimmys-bbq/49f15227f964a520a5691fe3
Dive 75,$,True,9.15,805,Bar,40.7794718036,-73.9776970208,8164,http://www.divebarnyc.com,https://foursquare.com/v/dive-75/4133bf80f964a520b31a1fe3
Dakota Bar,$$$,True,8.04,167,Wine Bar,40.7773747884,-73.9787989641,2089,,https://foursquare.com/v/dakota-bar/4ec68ffb4690116a8afb13cf
Amsterdam Ale House,$$,True,8.89,961,Pub,40.781203,-73.979929,10868,http://www.amsterdamalehousenyc.com,https://foursquare.com/v/amsterdam-ale-house/49ef2aabf964a52083681fe3
George Keeley's,$$,True,9.06,854,Pub,40.785953,-73.976422,9693,,https://foursquare.com/v/george-keeleys/3fd66200f964a5200ce91ee3
Fred's Restaurant,$$,False,9.14,948,American Restaurant,40.7855722,-73.976527,9454,http://m.mainstreethub.com/fredsnyc,https://foursquare.com/v/freds-restaurant/44281118f964a520ba311fe3
Osteria Cotta,$$,False,9.24,748,Italian Restaurant,40.7855350094,-73.9728587264,5371,http://www.cottanyc.com,https://foursquare.com/osteriacotta
Jake's Dilemma,$$,True,8.5,1535,Dive Bar,40.7842862724,-73.9775592775,16743,http://jakesdilemmanyc.mobile.singleplatform.com/today.php,https://foursquare.com/v/jakes-dilemma/3fd66200f964a52042e81ee3
Prohibition,$$,True,8.91,672,Bar,40.7853244941,-73.9729333392,7442,http://prohibition.net,https://foursquare.com/v/prohibition/3fd66200f964a5203be81ee3
Brandy's Piano Bar,,False,8.66,364,Piano Bar,40.7769342529,-73.9536523819,4546,,https://foursquare.com/v/brandys-piano-bar/3fd66200f964a520ddea1ee3
Heidelberg Restaurant,$$$,False,8.85,622,German Restaurant,40.7775644901,-73.9519545207,4386,,https://foursquare.com/v/heidelberg-restaurant/439e1fd8f964a520092c1fe3
Molly Pitcher's Ale House,$$,True,7.75,416,Bar,40.7771594935,-73.9523678054,5258,http://mollypitchersnyc.com,https://foursquare.com/v/molly-pitchers-ale-house-new-york-ny/45fe3c08f964a52083441fe3
City Swiggers,,False,8.84,441,Food & Drink Shop,40.7771454895,-73.9507448673,2976,http://www.cityswiggers.com,https://foursquare.com/v/city-swiggers/4e95c2f5108168120ad2f07e
Drunken Munkey NYC,$$,False,7.54,96,Indian Restaurant,40.7811101134,-73.9476442337,382,http://drunkenmunkeynyc.com,https://foursquare.com/v/drunken-munkey-nyc/5272ca4511d22488f6895caf
The Auction House,$$,False,8.95,585,Bar,40.779611,-73.949873,4343,http://www.auctionhousenyc.com,https://foursquare.com/v/the-auction-house/3fd66200f964a520cee81ee3
The District,$$,True,8.81,395,Bar,40.7839658826,-73.9501865708,3332,http://www.thedistrictbarnyc.com,https://foursquare.com/v/the-district/50d28335e4b0c590548c5776
Rocky McBride's,$,True,8.48,123,Sports Bar,40.776174,-73.915098,2140,http://rockymcbrides-hub.com,https://foursquare.com/v/rocky-mcbrides/4f500d15e4b080724525f0f3
Crescent & Vine,$$,False,8.54,257,Wine Bar,40.7787041935,-73.9143476666,2205,,https://foursquare.com/v/crescent--vine/470b8bb9f964a520784b1fe3
No Partners,$$,False,7.74,47,Bar,40.7783641,-73.909139,626,,https://foursquare.com/v/no-partners-astoria-ny/4e2248e67d8b71715bb4bb20
Dish restaurant,,False,,,Bar,40.7783634165,-73.8469804871,41,,https://foursquare.com/v/dish-restaurant/50316268e4b0b49bb64a280a
Happy Hauman Hacienda!,,False,,,Home (private),40.7658690172,-74.0241367178,479,,https://foursquare.com/v/happy-hauman-hacienda/4fb81658e4b0c241c40e020d
Sinbad Cafe & Grill,$,False,5.88,45,Middle Eastern Restaurant,40.7977491961,-74.0655742773,406,,https://foursquare.com/v/sinbad-cafe--grill/4beb5917b3352d7f307156d2
Charlie's Corner,$$,True,7.04,49,Bar,40.7894651081,-74.0565097332,522,,https://foursquare.com/v/charlies-corner-secaucus-nj/4c2fefa9213c2d7fedd0315d
American Retro Bar & Grill,$,True,9.01,450,Bar,40.7662340174,-73.9942427228,5556,,https://foursquare.com/v/american-retro-bar--grill/4c7afff5278eb71348425e80
Pier I Cafe,$$,False,9.48,1140,American Restaurant,40.7798265111,-73.9888858795,10380,,https://foursquare.com/v/pier-i-cafe/4a35a6fef964a520459d1fe3
AG Kitchen,$$$,False,8.17,386,Cuban Restaurant,40.7778087226,-73.9785808717,3476,http://www.agkitchen.com,https://foursquare.com/agkitchen
The Empire Hotel,,False,8.94,1341,Hotel,40.7712793621,-73.9819335938,12577,http://www.empirehotelnyc.com,https://foursquare.com/theempirehotel
The Gin Mill,$,True,9.13,1650,Bar,40.784599125,-73.9773584016,18979,http://www.nycbestbar.com/ginmill/,https://foursquare.com/v/the-gin-mill/40fc6080f964a520250b1fe3
Roof Garden café,,False,8.78,186,Scenic Lookout,40.7786557506,-73.9645593048,2565,,https://foursquare.com/v/roof-garden-caf%C3%A9-new-york-ny/4fd24084e4b0753b254afa94
Bemelmans Bar,$$$$,False,9.19,723,Hotel Bar,40.7745806581,-73.963371184,3526,http://www.thecarlyle.com/dining/bemelmans_bar,https://foursquare.com/v/bemelmans-bar/3fd66200f964a520cdea1ee3
Vella,$$,False,7.31,98,Wine Bar,40.7720737709,-73.9559954883,799,http://vellanyc.com,https://foursquare.com/v/vella-new-york-ny/51ce3280498e3b445435e5d6
Hi-Life Restaurant & Lounge,$$,False,8.34,485,American Restaurant,40.7730018798,-73.955540657,5604,,https://foursquare.com/v/hilife-restaurant--lounge/3fd66200f964a52058e91ee3
Sojourn,$$,False,8.6,337,Tapas Restaurant,40.7735211789,-73.9555420317,3489,http://www.sojournrestaurant.com,https://foursquare.com/v/sojourn/4be1fe8b660ec9282567c83b
Johnny Foxes,$$,True,8.37,524,Bar,40.7743854496,-73.9542562754,6621,http://johnnyfoxesnyc.com,https://foursquare.com/v/johnny-foxes/49dce835f964a520bc5f1fe3
Dorrian's Red Hand,$,False,8.64,826,Burger Joint,40.7763330374,-73.9526867867,8459,http://www.dorrians-nyc.com,https://foursquare.com/v/dorrians-red-hand/3fd66200f964a5206fe81ee3
East End Bar & Grill,$$,True,8.59,681,Sports Bar,40.777423,-73.948947,7918,http://www.eastendbar.com,https://foursquare.com/v/east-end-bar--grill/4aaaf5cdf964a520475820e3
The Uptown Restaurant & Bar,$$,True,8.8,771,American Restaurant,40.780482,-73.952901,7995,http://www.uptownloungenyc.com,https://foursquare.com/v/the-uptown-restaurant--bar/40de0e00f964a52089011fe3
Infirmary,$$,True,8.16,134,Cocktail Bar,40.780140348,-73.9502554523,704,http://www.infirmarynyc.com,https://foursquare.com/v/infirmary/529969ff11d2974912c8aa89
Manny's On Second,$$,True,9.18,674,Sports Bar,40.7819085717,-73.9486826527,7801,http://www.mannysonsecond.com,https://foursquare.com/v/mannys-on-second/4ad0c792f964a520bed920e3
BARn,$,True,7.8,92,Bar,40.7695628938,-73.9278361201,1075,http://club21nyc.com,https://foursquare.com/v/barn/4aa2ea4af964a5209b4220e3
Mosaic,$$,True,9.09,466,Lounge,40.7746400584,-73.9184390008,4106,http://mosaicastoria.com,https://foursquare.com/mosaicastoria
The Burrow,,False,,,Home (private),40.7705929545,-73.9183463601,569,,https://foursquare.com/v/the-burrow/522bea5c11d2be371d72dd2b
Republic,$$$,True,7.14,7,Lounge,40.770282,-73.914701,62,,https://foursquare.com/v/republic/5359c469498ea7fca682b088
Central Lounge,$$,False,7.51,237,Sushi Restaurant,40.7759918046,-73.9024543762,3400,http://www.centrallounge.com,https://foursquare.com/v/central-lounge/41366280f964a520cd1a1fe3
Jet Rock Bar & Grill,$$,False,5.41,74,Bar,40.774984345,-73.8741517067,1040,http://www.anotgexperience.com,https://foursquare.com/v/jet-rock-bar--grill/4b155e59f964a520baab23e3
7th Gear,$$,False,5.52,44,Bar,40.78221722,-73.84606,462,,https://foursquare.com/v/7th-gear/4d3f94f746775481b04150f4
Level Royal,$$$,False,,,Nightclub,40.7814186153,-73.8410419712,20,,https://foursquare.com/v/level-royal/52c91abb498e029759200b51
The Stone Tavern,$$,True,7.49,85,Bar,40.7883075756,-73.8160657883,1954,,https://foursquare.com/v/the-stone-tavern/4c8982a7cb08ef3b685c2dc1
Pepsi,,False,,,Strip Club,40.7833941856,-73.8501047408,520,,https://foursquare.com/v/pepsi/4be8cb02d837c9b6f8d0a506
New Jersey Beer Company,$,True,7.32,77,Brewery,40.7834725905,-74.0358101435,655,,https://foursquare.com/v/new-jersey-beer-company-north-bergen-nj/4c1bf6e4b9f876b082257b46
Trolley Car,$$,False,7.27,72,Bar,40.7384202634,-74.046590715,1021,,https://foursquare.com/v/trolley-car/4effcedb30f89923324d9050
Pourhouse 17,$,True,6.98,140,Bar,40.797249,-74.1267,1420,http://facebook.com/pourhouse17,https://foursquare.com/pourhouse17
37 Jump Street,$,True,,,Beer Garden,40.7942792311,-74.1222955857,67,,https://foursquare.com/v/37-jump-street/52a3c022498e085700c9d7af
Urban Plum,$$,False,7.1,58,American Restaurant,40.7864455208,-74.0444966125,496,http://www.theurbanplum.com,https://foursquare.com/urbanplum
Oasis Bar & Grill,$$,False,5.85,44,Italian Restaurant,40.7929782291,-74.0627632926,561,,https://foursquare.com/v/oasis-bar--grill/4d002365202e224b38f6b12a
DC's Tavern,$,True,7.31,143,Dive Bar,40.747297,-74.035955,1572,,https://foursquare.com/v/dcs-tavern-hoboken-nj/45c1e0c6f964a52030421fe3
Oneils Pub,$$,False,6.66,113,Bar,40.7822284246,-74.1381634712,1340,,https://foursquare.com/v/oneils-pub/4b77a1a0f964a520cea42ee3
Whiskey Cafe,$$,True,8.02,213,Bar,40.8061807345,-74.1040977614,2331,http://whiskeycafe.com,https://foursquare.com/whiskeycafenj
Tiki Lounge,,False,,,Lounge,40.7973640173,-74.0534580617,539,,https://foursquare.com/v/tiki-lounge/50426097e4b0b5223e156e6b
Farside,$$,True,7.9,306,Bar,40.7431624019,-74.0289995368,4053,,https://foursquare.com/v/farside-hoboken-nj/49e8d1a7f964a52097651fe3
Atlas Social Club,$$,True,8.27,285,Gay Bar,40.7639716204,-73.9885726949,2320,,https://foursquare.com/v/atlas-social-club/5231165511d2052fadd8f407
Lincoln Park Grill,$$,True,8.89,915,Sports Bar,40.7674265034,-73.9860073539,10858,http://lpgnyc.com,https://foursquare.com/v/lincoln-park-grill/4a417310f964a52052a51fe3
Kashkaval Cheese Market,$$,False,9.4,1073,Wine Bar,40.7668266094,-73.9862465858,7202,http://www.kashkaval.com,https://foursquare.com/v/kashkaval-cheese-market/49e6ab3cf964a52064641fe3
Bar Nine,$$,True,8.38,535,Dive Bar,40.7656852262,-73.9873962005,7906,http://www.bar9ny.com,https://foursquare.com/bar9ny
Blue Ribbon Sushi Bar & Grill,$$$,False,9.08,813,Sushi Restaurant,40.7676529121,-73.982925456,7421,http://www.facebook.com/thompsonhotels,https://foursquare.com/v/blue-ribbon-sushi-bar--grill/4a20a2e9f964a520af7c1fe3
Stone Rose Lounge,$$$,False,9.0,792,Lounge,40.7682426814,-73.9819096241,11145,http://www.stoneroselounge.com,https://foursquare.com/v/stone-rose-lounge-new-york-ny/41521200f964a520101d1fe3
JW Marriott Essex House New York,,False,8.47,842,Hotel,40.766241554,-73.9786291122,11381,http://www.marriott.com/hotels/travel/nycex-jw-marriott-essex-house-new-york/,https://foursquare.com/v/jw-marriott-essex-house-new-york/4b18552ef964a52009d123e3
P.J. Clarke's,$$$,False,8.81,1372,Burger Joint,40.7719618745,-73.9826202393,15953,,https://foursquare.com/v/pj-clarkes/4ab2a782f964a520c86b20e3
Boat Basin Café,$$,True,9.11,2340,Beer Garden,40.785675637,-73.9845085144,22175,http://www.boatbasincafe.com,https://foursquare.com/v/boat-basin-caf%C3%A9/40ede000f964a5203c0a1fe3
Iggy's,$$,True,7.45,332,Karaoke Bar,40.7712010858,-73.9562997054,4308,http://newyorkiggys.com,https://foursquare.com/iggys_nyc
MXco,$$,False,8.12,506,Mexican Restaurant,40.772512,-73.95556658,5858,http://www.mxconyc.com,https://foursquare.com/v/mxco/4b43d070f964a520caea25e3
Rathbone's,$$,True,8.9,727,Pub,40.7793201378,-73.9506859609,8099,http://www.rathbonesnyc.com,https://foursquare.com/v/rathbones/3fd66200f964a520dbe81ee3
Mad River Bar & Grille,$$,True,8.71,738,Pub,40.7761672,-73.9561516,8714,,https://foursquare.com/v/mad-river-bar--grille/3fd66200f964a52073e81ee3
Third Avenue Ale House,$$,True,9.09,446,Bar,40.7826374053,-73.9509916306,3971,,https://foursquare.com/v/third-avenue-ale-house/50a2825883026af7a30e4b5f
Astoria Brewhouse,$$,True,8.68,562,Bar,40.7673219131,-73.9212484473,5463,http://astoriabrewhouse.com,https://foursquare.com/v/astoria-brewhouse/4b527fdcf964a520028027e3
Ditmars Station Pub & Restaurant,$$,True,8.02,333,Sports Bar,40.7749025865,-73.9121372982,3888,http://www.ditmarsstation.com,https://foursquare.com/v/ditmars-station-pub--restaurant/4ca7d69644a8224b71931140
Astoria Tavern,$$,True,7.11,78,Pub,40.7731697299,-73.9115631724,791,,https://foursquare.com/v/astoria-tavern/51f2b19f498e19dae32cad77
Bowery Bay,$$,True,7.75,27,Bar,40.7805394213,-73.9167302433,177,http://bowerybaybar.com,https://foursquare.com/v/bowery-bay/533b5c3a498ee6c813ececf5
New York LaGuardia Airport Marriott - Hotel Bar,$$$,False,5.24,106,Hotel Bar,40.7708655239,-73.8652888268,2057,,https://foursquare.com/v/new-york-laguardia-airport-marriott--hotel-bar/4f519e76e4b0061513b78d77
Empire Bar,$$,False,5.93,39,American Restaurant,40.7692058074,-73.8670920027,470,,https://foursquare.com/v/empire-bar/4c6d6878f338236a3280071b
Parkside Pub,$$,False,7.27,36,Bar,40.776932,-73.8176697493,446,,https://foursquare.com/v/parkside-pub/4b933a6df964a5203c3c34e3
California Red,$$,False,7.75,27,Karaoke Bar,40.7611234292,-73.8311459623,363,,https://foursquare.com/v/california-red/4cf9d87ed8468cfa2f0eea6b
360 Lounge,$$$,True,,,Lounge,40.76064316,-73.8333285257,558,,https://foursquare.com/v/360-lounge/4ce8e440d99f721e346cb373
Tonic Bar @ Spa Castle,$$,False,,,Brewery,40.787606,-73.83682,141,,https://foursquare.com/v/tonic-bar--spa-castle/4d35c4b82c76a143bf2392c7
Copper Mine Pub,$,False,8.63,240,Bar,40.7915150049,-74.1312246627,3031,http://copperminepub.com,https://foursquare.com/v/copper-mine-pub/4a91dee5f964a520301c20e3
McMahon's Brownstone Ale House,$,True,7.83,103,Bar,40.750294,-74.030907,1027,http://www.mcmahonsbrownstonebar.com,https://foursquare.com/v/mcmahons-brownstone-ale-house/44f98658f964a52063381fe3
Tilted Kilt,$$,True,7.73,366,Pub,40.7482346836,-74.0387649645,3863,http://www.tiltedkilt.com,https://foursquare.com/v/tilted-kilt/4e9b52c4f5b9d59004e66ae9
Cypress Point,,False,,,Residential Building (Apartment / Condo),40.7537916548,-74.0315008163,820,,https://foursquare.com/v/cypress-point/4eafed20f7900d57e4937944
Mamajuana Café,$$,False,6.51,64,Latin American Restaurant,40.7817229333,-74.0473996635,620,http://www.mamajuana-cafe.com,https://foursquare.com/v/mamajuana-caf%C3%A9/50f889cde4b03f846325c00b
Plank Road Inn,$$,True,8.56,159,Bar,40.799021,-74.058392,4957,http://plankroadinn.com,https://foursquare.com/v/plank-road-inn/4bd26c4a9854d13a4ccffb4d
Ink48 Hotel,,False,9.24,1052,Hotel,40.7645044277,-73.9958094115,10641,http://www.ink48.com,https://foursquare.com/v/ink48-hotel/4a9f2ec3f964a520d73c20e3
Stage 48,$$,True,8.08,429,Nightclub,40.7647521799,-73.9957233301,4995,https://stage48.com,https://foursquare.com/v/stage-48/50bacc5ae4b054161cb7f1f0
Brickyard Gastropub,$$,True,9.03,848,Bar,40.7649185091,-73.9877864531,9857,http://www.brickyardnyc.com,https://foursquare.com/v/brickyard-gastropub/4ba29cfdf964a520490938e3
Jasper's Taphouse & Kitchen,$$,True,8.66,84,Bar,40.7641772768,-73.9886128677,627,http://www.jasperstaphouse.com,https://foursquare.com/v/jaspers-taphouse--kitchen/531b8bb8498efc58d3204a87
Mother Burger,$$,False,8.72,1238,Burger Joint,40.7624048724,-73.987654456,12728,http://www.motherburger.com,https://foursquare.com/v/mother-burger/4a3304bcf964a520f29a1fe3
Alfie's Bar & Kitchen,$$,True,9.18,613,Bar,40.7653256112,-73.9875339368,6167,,https://foursquare.com/v/alfies-bar--kitchen/503920e5e4b0fba092d5e890
54 Below,$$,False,9.19,517,Performing Arts Venue,40.764802562,-73.9837691089,4078,http://www.54below.com,https://foursquare.com/54below
Hudson Common @ the Hudson,$$$,False,9.1,450,American Restaurant,40.7683704808,-73.9849162102,4129,,https://foursquare.com/v/hudson-common--the-hudson/5112c54216489f91a8225bca
The House of Brews,$$,True,9.08,960,Beer Garden,40.7631853785,-73.9860819616,12078,https://www.facebook.com/BrewsNYC,https://foursquare.com/houseofbrewsnyc
Iguana NYC,$$$,False,8.12,508,Mexican Restaurant,40.7641613154,-73.9833068848,6722,http://www.iguananyc.com,https://foursquare.com/iguananewyork
The Roof,$$$,True,7.8,83,Cocktail Bar,40.7645161852,-73.9784373897,386,http://theroofny.com,https://foursquare.com/v/the-roof/5314de2f498e8cb0eb67f5cd
Kingside,$$$,False,8.59,233,Cocktail Bar,40.7647473821,-73.978362779,1314,http://www.kingside-restaurant.com,https://foursquare.com/v/kingside/52375a0711d2eedd30ff6a8e
The Empire Hotel Rooftop,$$$,True,9.22,2160,Lounge,40.7714337405,-73.9824700356,21709,http://www.chinagrillmgt.com/restaurants-and-bars/empire-hotel-rooftop,https://foursquare.com/empirerooftop
Pazza Notte,$$$,False,8.75,656,Italian Restaurant,40.7633418854,-73.9779380714,7386,http://www.pazzanotte.com,https://foursquare.com/v/pazza-notte/429cfa80f964a520ad241fe3
Subway Inn,$,False,8.87,521,Dive Bar,40.7628123758,-73.9675194025,6937,,https://foursquare.com/v/subway-inn/3fd66200f964a52011e81ee3
Pig 'n' Whistle,$,True,8.45,480,Bar,40.7593301993,-73.9681924981,7795,http://www.pignwhistle.com,https://foursquare.com/v/pig-n-whistle/41536380f964a520151d1fe3
O'Flanagan's,$$,False,8.36,455,Pub,40.7638136947,-73.9590089389,5623,,https://foursquare.com/v/oflanagans/3fd66200f964a52010eb1ee3
Session 73,$$,True,7.28,445,Bar,40.768369,-73.955709,5974,http://www.session73.com,https://foursquare.com/v/session-73/3fd66200f964a5206ae51ee3
The Dreadfort,,False,,,Home (private),40.7657395026,-73.9536162641,2564,,https://foursquare.com/v/the-dreadfort/4b57fce9f964a520f94728e3
Doc Watson's,$$,True,8.17,580,Pub,40.772271,-73.955686,7222,http://docwatsons.com/docs/,https://foursquare.com/v/doc-watsons/3fd66200f964a520dfe71ee3
The Gilroy,$$$,False,8.34,145,Cocktail Bar,40.7746354317,-73.9539922351,422,http://www.thegilroynyc.com,https://foursquare.com/v/the-gilroy/5306bc0711d213646501260d
Jbird Cocktails,$$$,True,9.11,786,Cocktail Bar,40.7700403753,-73.9551459737,4632,http://jbirdny.com,https://foursquare.com/v/jbird-cocktails/4efcafc202d5a2b50f134294
Brother Jimmy's BBQ,$$,False,9.14,1849,BBQ Joint,40.772301,-73.955844,16481,http://www.facebook.com/brotherjimmysbbq,https://foursquare.com/v/brother-jimmys-bbq/3fd66200f964a520d7e81ee3
MexiBBQ,$$,False,8.07,163,Mexican Restaurant,40.7772233831,-73.9523046647,1265,http://www.mexibbq.com,https://foursquare.com/v/mexibbq/524b7bb811d27e01bf64f329
DTUT,$,True,9.32,548,Coffee Shop,40.7808014012,-73.9493393898,2661,https://m.facebook.com/pages/DTUT/611538915526498?_rdr,https://foursquare.com/v/dtut/51ae935b7dd2de27a217609e
Crescent Lounge,$,True,8.25,175,Lounge,40.76323248,-73.92871228,2312,,https://foursquare.com/v/crescent-lounge/4373df00f964a520202a1fe3
ICON,$$,True,6.99,57,Gay Bar,40.7615121672,-73.9235472679,403,http://iconastoria.com,https://foursquare.com/v/icon/52aa0e6011d2a5eaa62e0cc9
Vesta Trattoria & Wine Bar,$$,False,9.39,622,Italian Restaurant,40.769771,-73.927716,4969,http://www.vestavino.com,https://foursquare.com/v/vesta-trattoria--wine-bar/49c68eaaf964a5205c571fe3
Don Coquí Astoria,$$$$,True,8.45,470,Latin American Restaurant,40.7679837393,-73.9205136005,4638,http://www.doncoqui.com,https://foursquare.com/doncoquiastoria
Bourbon and Vine,$$,False,7.28,90,Gastropub,40.7649576644,-73.917131424,681,,https://foursquare.com/v/bourbon-and-vine/522e6d39bce649f91571ea2c
Fayrooz Cafe Hookah Bar & Lounge,$$,True,6.52,97,Hookah Bar,40.7653172372,-73.9140978456,1005,http://www.fayroozcafe.com,https://foursquare.com/v/fayrooz-cafe-hookah-bar-lounge-astoria-ny/4bea291cb3352d7f8ff254d2
Midnight Lounge,$,False,7.53,37,Hookah Bar,40.766875,-73.912206,296,,https://foursquare.com/v/midnight-lounge/52883f27498e9c67784999c3
The Sandwich Bar,$$,False,8.7,144,Sandwich Place,40.7753743311,-73.9094495773,958,https://www.facebook.com/thesandwichbarny,https://foursquare.com/v/the-sandwich-bar/51a017705019f698fcc04dd3
"NYSB - B Terminal, LGA",$,False,6.77,24,Sports Bar,40.7748170712,-73.8710485949,476,,https://foursquare.com/v/nysb--b-terminal-lga/4e99f7bf7ee539c856ffc4ca
Nag's Head,$$,True,7.87,189,Bar,40.738275,-74.035961,2039,http://nagsheadhoboken.com,https://foursquare.com/v/nags-head/4ab66881f964a520f27620e3
The House of Jello,$$$,True,,,Lounge,40.743270874,-74.0477981567,108,,https://foursquare.com/v/the-house-of-jello/52d5e0b611d2e9311f757fa1
Lorenzo's Restaurant & Bar,$$,False,5.89,61,Italian Restaurant,40.7668755506,-74.0686548392,816,http://www.lorenzosnj.com,https://foursquare.com/v/lorenzos-restaurant--bar/4b7c8186f964a52086972fe3
Molly McEvoys,$$,False,6.79,59,Bar,40.7908684671,-74.0586729484,1117,http://www.mollymcevoys.com,https://foursquare.com/v/molly-mcevoys/4f739bb9e4b07e6962945672
Lucky Strike New York,,False,9.01,1999,Bowling Alley,40.7618202496,-74.0009914444,16099,http://luckystrikeny.com,https://foursquare.com/v/lucky-strike-new-york/4a452bd2f964a520e6a71fe3
Pacha NYC,$$$,True,9.02,2833,Nightclub,40.7636249933,-73.9975762367,24061,http://pachanyc.com,https://foursquare.com/v/pacha-nyc/43920486f964a520662b1fe3
Hudson Terrace,$$$,False,8.93,1701,Nightclub,40.7640197738,-73.9975740282,19640,http://www.hudsonterracenyc.com,https://foursquare.com/hudsonterrace
Bar-tini Ultra Lounge,$$,True,8.75,1507,Gay Bar,40.761756401,-73.9939557821,16417,http://www.facebook.com/BartiniUltraLounge,https://foursquare.com/v/bartini-ultra-lounge/4abadd53f964a520338320e3
The Press Lounge,,False,8.94,1195,Roof Deck,40.764555348,-73.9958954929,9964,http://thepresslounge.com,https://foursquare.com/v/the-press-lounge/4bf9ae7d5ec320a1d3ad8ad3
44 & X Hell's Kitchen,$$$,False,9.05,1051,American Restaurant,40.7610807609,-73.9944435811,10038,http://44andx.com,https://foursquare.com/v/44--x-hells-kitchen/4665447af964a5207f471fe3
Hardware Bar,$,True,9.07,696,Gay Bar,40.7631583925,-73.9929457474,6287,http://hardware-bar.com,https://foursquare.com/hardwarebarny
Lansdowne Road,$$,True,9.07,1308,Pub,40.760667018,-73.9949476719,15293,,https://foursquare.com/v/lansdowne-road/46ea2358f964a520cf4a1fe3
Room Service,$$,False,9.17,1655,Thai Restaurant,40.7618469696,-73.9901509077,15173,,https://foursquare.com/v/room-service/4a69ba4ef964a52000cc1fe3
Gyu-Kaku Japanese BBQ,$$,True,8.86,753,Japanese Restaurant,40.7588327295,-73.9900016954,6549,http://www.gyu-kaku.com,https://foursquare.com/v/gyukaku-japanese-bbq/4ef0d81fbe7ba3ed7c2296d2
Social,$$,True,8.46,742,Bar,40.7611939261,-73.9870059471,10711,http://www.socialbarnyc.com,https://foursquare.com/v/social/40c3b000f964a520e8001fe3
Posh Bar & Lounge,$$,True,8.73,1567,Gay Bar,40.7643075843,-73.9888215065,19976,http://poshbarnyc.com,https://foursquare.com/v/posh-bar--lounge/4276bf00f964a5208b211fe3
Blockheads Burritos,$$,False,8.69,1951,Burrito Place,40.7627158768,-73.9876366407,19826,,https://foursquare.com/v/blockheads-burritos/44d8c155f964a52079361fe3
Valhalla,$$,True,9.23,1405,Bar,40.7659641663,-73.9871379446,13711,http://valhallabarnyc.com,https://foursquare.com/v/valhalla/49c18298f964a520b0551fe3
Flaming Saddles Saloon,$$,True,8.75,1576,Gay Bar,40.7651626207,-73.9876314999,15755,http://flamingsaddles.com,https://foursquare.com/v/flaming-saddles-saloon/4e6dfab3b61cf2b03c254994
Sake Bar Hagi,$$$,False,9.45,1320,Japanese Restaurant,40.760315733,-73.9833444134,7329,http://sakebarhagi.com,https://foursquare.com/v/sake-bar-hagi/4a7f0d22f964a52094f21fe3
Johnny Utah's,$$,True,8.6,843,Bar,40.7595257346,-73.9785349574,13086,http://www.johnnyutahs.com,https://foursquare.com/v/johnny-utahs/46d07785f964a5204f4a1fe3
Industry Bar,$$,True,8.69,3022,Gay Bar,40.7642126285,-73.9870174251,29535,http://www.industry-bar.com,https://foursquare.com/v/industry-bar/4c9bb662e9a7ef3bd0ed2e16
Crowne Plaza Manhattan Times Square,,False,8.85,1843,Hotel,40.7605396241,-73.9846242364,17156,http://www.cpmanhattantimessquare.com,https://foursquare.com/v/crowne-plaza-manhattan-times-square/4ab79e30f964a520397a20e3
The Three Monkeys,$$,True,9.24,1349,Bar,40.7642370526,-73.9832698046,16024,http://www.thethreemonkeysbar.com,https://foursquare.com/v/the-three-monkeys/4c520b3b9426c92881c4bf74
McGee's Pub,$$,True,9.09,1335,Pub,40.7650064201,-73.9831352234,15031,http://mcgeespub.com,https://foursquare.com/v/mcgees-pub/3fd66200f964a52092e71ee3
Landmarc,$$$,False,9.41,1865,American Restaurant,40.7685155476,-73.9819497983,18093,http://landmarc-restaurant.com,https://foursquare.com/v/landmarc/49ce7e48f964a5204a5a1fe3
Hudson Hotel,,False,9.1,3127,Hotel,40.7679838849,-73.9851694499,29942,http://backofhouse.morganshotelgroup.com,https://foursquare.com/v/hudson-hotel/3fd66200f964a520bee71ee3
Whiskey Trader,$$,False,8.53,559,Bar,40.7629357009,-73.9778060676,8351,http://whiskeytradernyc.com,https://foursquare.com/whiskeytraderny
Má Pêche,$$$,False,9.42,1575,Vietnamese Restaurant,40.7627981021,-73.9756939932,10848,,https://foursquare.com/v/m%C3%A1-p%C3%AAche/4afc22c8f964a5200a2022e3
Session House Bar & Kitchen,$$,True,8.84,411,Bar,40.757078,-73.9671573,6018,http://sessionhousenyc.com,https://foursquare.com/v/session-house-bar--kitchen/4dd20d20e4cd7f7178c0d34d
Brinkley's Station,$$,False,8.42,496,New American Restaurant,40.7625704811,-73.9673946937,4115,http://www.brinkleysstation.com,https://foursquare.com/v/brinkleys-station/505000f7e4b06999c69f96ec
Lips,$$,False,8.83,240,Other Nightlife,40.7592259,-73.967158,4546,http://lipsnyc.com,https://foursquare.com/v/lips/4c056685d3842d7fea21be41
Baker Street Pub,$$,True,8.42,590,Pub,40.7621102049,-73.960277444,6908,http://www.bakerstreetnyc.com,https://foursquare.com/v/baker-street-pub/4a01c708f964a520fd701fe3
Honky Tonk Tavern,$$,True,8.57,345,Bar,40.7623125611,-73.959978973,3781,http://honkytonktavernnyc.com,https://foursquare.com/v/honky-tonk-tavern/4eaceb4d7ee59f1608bffa17
Jones Wood Foundry,$$,False,8.89,1081,English Restaurant,40.7703450745,-73.9537167144,7519,http://www.joneswoodfoundry.com,https://foursquare.com/v/jones-wood-foundry/4d44b335c3e5f04dcf6a9d20
Bar-Coastal,$$,True,9.14,928,Bar,40.7717232097,-73.9532575124,8690,,https://foursquare.com/v/barcoastal/42474900f964a52078201fe3
The Supply House,$$,True,8.92,265,Bar,40.7775195,-73.9522530042,1773,,https://foursquare.com/v/the-supply-house/5202340b498e2a22f0d56432
Bondurants,$$,True,9.26,249,Bar,40.7771178464,-73.9520980224,1043,,https://foursquare.com/v/bondurants/52bfac81498eeba382012f35
Daly's Pub,$,True,8.69,302,Bar,40.762274082,-73.925267092,4038,http://dalyspub-hub.com,https://foursquare.com/v/dalys-pub-astoria-ny/4ad0ca02f964a520d1d920e3
Rapture Lounge,$$,True,8.81,456,Lounge,40.7670557499,-73.91701844,6603,http://www.rapturelounge.com,https://foursquare.com/v/rapture-lounge-astoria-ny/41f58c00f964a5202a1f1fe3
The Quays Pub,$,False,8.55,306,Pub,40.7619467311,-73.9110694229,3393,,https://foursquare.com/v/the-quays-pub/447c62d1f964a520f3331fe3
Irish Rover,$,False,8.76,336,Pub,40.76585964,-73.914577961,4537,,https://foursquare.com/v/irish-rover/4176fc00f964a520b61d1fe3
McCann's Pub,$,True,8.7,471,Pub,40.7741556167,-73.9075613022,5257,http://www.mccannspubnyc.com,https://foursquare.com/v/mccanns-pub/40e0b100f964a52099011fe3
Sweet Spot,$$,True,6.83,93,Sports Bar,40.7741294276,-73.9128090232,738,,https://foursquare.com/v/sweet-spot/5269c008498e3ba2a46642fb
Astoria Bowl,,False,8.58,309,Bowling Alley,40.7731806291,-73.8949656487,3827,http://astoriabowl.com,https://foursquare.com/v/astoria-bowl/4b649083f964a5201dbe2ae3
New York Sports Bar,$,True,5.44,98,Sports Bar,40.7745618573,-73.871254921,2018,,https://foursquare.com/v/new-york-sports-bar/4aef4c19f964a52058d721e3
Wibar,$$,False,,,Wine Bar,40.7724320076,-73.8655759578,109,,https://foursquare.com/v/wibar/5280454f11d2874c14520b51
The Thomas,$,True,,,Beer Garden,40.74025379,-74.0372215783,2737,,https://foursquare.com/v/the-thomas/4c006d4734ccc928059de1cd
Turtle Club,$$$,True,8.05,533,Bar,40.7488517981,-74.0302561035,5627,,https://foursquare.com/v/turtle-club/4b5f7ebcf964a520b5bd29e3
Park Pent,$$$,False,,,Lounge,40.7395461729,-74.0328897026,1593,,https://foursquare.com/v/park-pent/4edaa76e46907c1b430102b6
Cheeseburger In Paradise,$$,False,7.33,1054,Burger Joint,40.7872028239,-74.0462422371,12122,,https://foursquare.com/v/cheeseburger-in-paradise-secaucus-nj/4b562071f964a520a30128e3
The West Five Supper Club,$$$,True,7.25,360,Lounge,40.7572375522,-74.0359210968,4205,http://www.thewestfive.com,https://foursquare.com/v/the-west-five-supper-club/4c7efe0c1009a093b84f464e
Carpe Diem Pub & Restaurant,$$,True,8.08,316,Pub,40.754429,-74.031357,3461,http://www.carpediemhoboken.com,https://foursquare.com/v/carpe-diem-pub--restaurant/4abfb223f964a520b39120e3
The Pony Bar,$$,True,9.49,2599,Bar,40.7617234528,-73.994153738,23529,http://www.theponybar.com,https://foursquare.com/v/the-pony-bar/49f8f8a2f964a520446d1fe3
Sky Room,$$$,True,9.33,1617,Lounge,40.7565057731,-73.9924177726,14966,http://www.skyroomnyc.com,https://foursquare.com/skyroomnyc
Rudy's Bar & Grill,$,False,9.43,1790,Dive Bar,40.7599938934,-73.9917922354,16300,http://www.rudysbarnyc.com,https://foursquare.com/v/rudys-bar-grill-new-york-ny/3fd66200f964a5208de81ee3
The New York Beer Company,$$$,True,9.17,982,Bar,40.7588466601,-73.9895510674,9973,http://www.facebook.com/newyorkbeercompany,https://foursquare.com/v/the-new-york-beer-company/4f297e04a17c6fd5208ea108
Réunion Surf Bar,$$,True,8.95,1101,Cocktail Bar,40.7595780599,-73.9918899536,10643,http://reunionbar.com,https://foursquare.com/v/r%C3%A9union-surf-bar-new-york-ny/4c4e37dcea24c9b6aa5f4915
5 Napkin Burger,$$,False,9.34,2533,Burger Joint,40.7602359899,-73.9912183462,23018,http://5napkinburger.com/locations-menus/hells-kitchen/,https://foursquare.com/v/5-napkin-burger/49d8c05df964a520c95d1fe3
Latitude Bar & Grill,$$,True,8.94,1037,Bar,40.760937,-73.9875069,13701,http://www.latitudebarnyc.com,https://foursquare.com/v/latitude-bar--grill/42547800f964a520d3201fe3
Ritz Bar & Lounge,$$,False,9.27,2147,Gay Bar,40.760871,-73.990166,22794,http://ritzbarandlounge.com,https://foursquare.com/v/ritz-bar--lounge/4ad04456f964a520c7d720e3
Ruby Tuesday,$$$,False,8.55,715,American Restaurant,40.7552900608,-73.9870289032,11331,http://www.facebook.com/rubytuesday,https://foursquare.com/v/ruby-tuesday/4a43b04ff964a520afa61fe3
Bourbon Street Bar & Grill,$$,True,9.22,1550,Sports Bar,40.760353,-73.989636,16202,http://www.bourbonny.com,https://foursquare.com/bourbonny
Lillie's Times Square,$$,True,9.06,943,Bar,40.7616394393,-73.9860877007,9744,http://www.lilliesnyc.com,https://foursquare.com/v/lillies-times-square/4eefc305be7ba3ed7ae89c9e
Manhattan Cocktail Classic Gala,$$$,True,7.42,36,Cocktail Bar,40.7529535779,-73.9817317095,578,,https://foursquare.com/v/manhattan-cocktail-classic-gala/4dcdcb04ae603b786d1fd913
Therapy NYC,$$,True,9.41,3055,Gay Bar,40.7641546191,-73.9868969055,30499,http://therapy-nyc.com,https://foursquare.com/v/therapy-nyc/42055e00f964a520681f1fe3
Boxers HK Sportsbar,$$,True,8.11,1068,Gay Bar,40.7634192916,-73.9887161693,9132,http://boxersnyc.com/hk/,https://foursquare.com/v/boxers-hk-sportsbar/50b9a34ce4b0c22ba965f7ff
Pershing Square Café,$$,False,8.82,779,American Restaurant,40.7522129028,-73.977612555,10187,http://www.pershingsquare.com,https://foursquare.com/v/pershing-square-caf%C3%A9/3fd66200f964a52059ea1ee3
InterContinental New York Barclay,,False,8.22,1289,Hotel,40.755595897,-73.973801136,10042,http://www.intercontinental.com,https://foursquare.com/v/intercontinental-new-york-barclay/4a7b8beaf964a52058eb1fe3
